,Unnamed: 0,index,State,Pharmacy Name,Street Address 1 (physical store address),Street Address 2,City,Zip,Borough,county,location_lat,location_long,Location
0,0,0,Alaska,ANCHORAGE PIONEER'S HOME PHARMACY,923 W 11TH AVENUE,,ANCHORAGE,99501,Anchorage Borough,Anchorage Municipality,61.21174,-149.9002657778770,"923 W 11TH AVENUE, ANCHORAGE, Alaska, 99501"
1,1,1,Alaska,CARRS PHARMACY #1802,1340 Gambell St,,ANCHORAGE,99501,Anchorage Borough,Anchorage Municipality,61.2088911,-149.8716603,"1340 Gambell St, ANCHORAGE, Alaska, 99501"
2,2,2,Alaska,DEPARTMENT OF CORRECTIONS PHARMACY,550 W 7TH AVE.,,ANCHORAGE,99501,Anchorage Borough,Anchorage Municipality,61.21551651316470,-149.89247765306,"550 W 7TH AVE., ANCHORAGE, Alaska, 99501"
3,3,3,Alaska,CARRS PHARMACY #1812,4000 W Dimond Blvd,,ANCHORAGE,99502,Anchorage Borough,Anchorage Municipality,61.1365564,-149.9525434,"4000 W Dimond Blvd, ANCHORAGE, Alaska, 99502"
4,4,4,Alaska,ST ELIAS SPECIALTY HOSPITAL,4800 CORDOVA,,ANCHORAGE,99503,Anchorage Borough,Anchorage Municipality,61.177111,-149.879108,"4800 CORDOVA, ANCHORAGE, Alaska, 99503"
5,5,5,Alaska,ANCHORAGE NBHD HEALTH CENTER PHARMACY,4951 BUSINESS PARK BLVD,,ANCHORAGE,99503,Anchorage Borough,Anchorage Municipality,61.1748223029628,-149.8901811393230,"4951 BUSINESS PARK BLVD, ANCHORAGE, Alaska, 99503"
6,6,6,Alaska,WALGREENS #13656,725 E NORTHERN LIGHTS BLVD,,ANCHORAGE,99503,Anchorage Borough,Anchorage Municipality,61.195365,-149.87120453640300,"725 E NORTHERN LIGHTS BLVD, ANCHORAGE, Alaska, 99503"
7,7,7,Alaska,WALGREENS #15092,1470 W Northern Lights Blvd,,ANCHORAGE,99503,Anchorage Borough,Anchorage Municipality,61.19521518791950,-149.91202297315400,"1470 W Northern Lights Blvd, ANCHORAGE, Alaska, 99503"
8,8,8,Alaska,RELIANCE MEDSETS,1035 W. FIREWEED LN.,,ANCHORAGE,99503,Anchorage Borough,Anchorage Municipality,61.198916775510200,-149.90215391836700,"1035 W. FIREWEED LN., ANCHORAGE, Alaska, 99503"
9,9,9,Alaska,WAL-MART PHARMACY #10-2070,3101 A ST,,ANCHORAGE,99503,Anchorage Borough,Anchorage Municipality,61.1915049,-149.8788249,"3101 A ST, ANCHORAGE, Alaska, 99503"
10,10,10,Alaska,AMS Pharmacy,188 W. NORTHERN LIGHTS BLVD,,ANCHORAGE,99503,Anchorage Borough,Anchorage Municipality,61.19521,-149.88603399997500,"188 W. NORTHERN LIGHTS BLVD, ANCHORAGE, Alaska, 99503"
11,11,11,Alaska,Carrs Pharmacy #0720,2920 SEWARD HWY,,ANCHORAGE,99503,Anchorage Borough,Anchorage Municipality,61.19419054178250,-149.86768689648100,"2920 SEWARD HWY, ANCHORAGE, Alaska, 99503"
12,12,12,Alaska,FRED MEYER #00018,7701 DEBARR RD,,ANCHORAGE,99504,Anchorage Borough,Anchorage Municipality,61.20980956068640,-149.73830763756300,"7701 DEBARR RD, ANCHORAGE, Alaska, 99504"
13,13,13,Alaska,PROVIDENCE APOTHECARY,920 COMPASSION CIRCLE,,ANCHORAGE,99504,Anchorage Borough,Anchorage Municipality,,,"920 COMPASSION CIRCLE, ANCHORAGE, Alaska, 99504"
14,14,14,Alaska,CVS/PHARMACY #17435,1200 N Muldoon Rd,,ANCHORAGE,99504,Anchorage Borough,Anchorage Municipality,61.23079111989170,-149.7425594710110,"1200 N Muldoon Rd, ANCHORAGE, Alaska, 99504"
15,15,15,Alaska,WALGREENS #12679,7600 DEBARR RD,,ANCHORAGE,99504,Anchorage Borough,Anchorage Municipality,61.20964138189730,-149.74307060470900,"7600 DEBARR RD, ANCHORAGE, Alaska, 99504"
16,16,16,Alaska,CARRS PHARMACY #1817,7731 E Northern Lights Blvd,,ANCHORAGE,99504,Anchorage Borough,Anchorage Municipality,61.196179,-149.7345556,"7731 E Northern Lights Blvd, ANCHORAGE, Alaska, 99504"
17,17,17,Alaska,CARRS PHARMACY #1809,5600 Debarr Rd,,ANCHORAGE,99504,Anchorage Borough,Anchorage Municipality,61.208219100000000,-149.77710520103400,"5600 Debarr Rd, ANCHORAGE, Alaska, 99504"
18,18,18,Alaska,WALMART PHARMACY #10-4359,7405 Debarr Rd,,ANCHORAGE,99504,Anchorage Borough,Anchorage Municipality,61.2124737,-149.7432257,"7405 Debarr Rd, ANCHORAGE, Alaska, 99504"
19,19,19,Alaska,GREAT LAND INFUSION PHARMACY,2421 E TUDOR 107,,ANCHORAGE,99507,Anchorage Borough,Anchorage Municipality,,,"2421 E TUDOR 107, ANCHORAGE, Alaska, 99507"
20,20,20,Alaska,FRED MEYER #656,2300 Abbott Rd Anchorage,,ANCHORAGE,99507,Anchorage Borough,Anchorage Municipality,61.13744,-149.837601,"2300 Abbott Rd Anchorage, ANCHORAGE, Alaska, 99507"
21,21,21,Alaska,CARRS PHARMACY #2628,1725 Abbott Rd,,ANCHORAGE,99507,Anchorage Borough,Anchorage Municipality,61.142278150000000,-149.8438075117240,"1725 Abbott Rd, ANCHORAGE, Alaska, 99507"
22,22,22,Alaska,WALGREENS #15654,2550 E. 88TH AVENUE,,ANCHORAGE,99507,Anchorage Borough,Anchorage Municipality,61.14104986406230,-149.83523248104900,"2550 E. 88TH AVENUE, ANCHORAGE, Alaska, 99507"
23,23,23,Alaska,COSTCO PHARMACY #63,4125 Debarr Road,,ANCHORAGE,99508,Anchorage Borough,Anchorage Municipality,61.2111305,-149.8044562,"4125 Debarr Road, ANCHORAGE, Alaska, 99508"
24,24,24,Alaska,PROVIDENCE ALASKA MEDICAL CENTER INPATIENT PHARMACY,3200 PROVIDENCE DRIVE,,ANCHORAGE,99508,Anchorage Borough,Anchorage Municipality,61.18841865,-149.82059674184700,"3200 PROVIDENCE DRIVE, ANCHORAGE, Alaska, 99508"
25,25,25,Alaska,WALGREENS #15653,4353 LAKE OTIS PARKWAY,,ANCHORAGE,99508,Anchorage Borough,Anchorage Municipality,61.1817554748851,-149.83802384240900,"4353 LAKE OTIS PARKWAY, ANCHORAGE, Alaska, 99508"
26,26,26,Alaska,FRED MEYER #000158,1000 E Northern Lights Blvd,,ANCHORAGE,99508,Anchorage Borough,Anchorage Municipality,61.19520000502510,-149.86418031658300,"1000 E Northern Lights Blvd, ANCHORAGE, Alaska, 99508"
27,27,27,Alaska,CARRS PHARMACY #0520,3101 Penland Pkwy,,ANCHORAGE,99508,Anchorage Borough,Anchorage Municipality,61.215829050000000,-149.81700165,"3101 Penland Pkwy, ANCHORAGE, Alaska, 99508"
28,28,28,Alaska,ALASKA PSYCHIATRIC INSTITUTE,3700 PIPER ST,,ANCHORAGE,99508,Anchorage Borough,Anchorage Municipality,61.186512,-149.827425,"3700 PIPER ST, ANCHORAGE, Alaska, 99508"
29,29,29,Alaska,IVY HOME INFUSIONS LLC,2841 DEBARR RD,,ANCHORAGE,99508,Anchorage Borough,Anchorage Municipality,61.209796604838500,-149.8287759967440,"2841 DEBARR RD, ANCHORAGE, Alaska, 99508"
30,30,30,Alaska,ALASKA REGIONAL PHARMACY,2801 DEBARR ROAD,,ANCHORAGE,99508,Anchorage Borough,Anchorage Municipality,61.21045645,-149.8286313242080,"2801 DEBARR ROAD, ANCHORAGE, Alaska, 99508"
31,31,31,Alaska,BERNIES PHARMACY,4100 LAKE OTIS PKWY,,ANCHORAGE,99508,Anchorage Borough,Anchorage Municipality,61.183518947578900,-149.83837632796000,"4100 LAKE OTIS PKWY, ANCHORAGE, Alaska, 99508"
32,32,32,Alaska,FRED MEYER #00011,1000 E Northern Lights Blvd,,ANCHORAGE,99508,Anchorage Borough,Anchorage Municipality,61.19520000502510,-149.86418031658300,"1000 E Northern Lights Blvd, ANCHORAGE, Alaska, 99508"
33,33,33,Alaska,NORTH STAR BEHAVIORAL HEALTH BRAGAW CAMPUS,1650 BRAGAW ST,,ANCHORAGE,99508,Anchorage Borough,Anchorage Municipality,61.20561885,-149.80942786364600,"1650 BRAGAW ST, ANCHORAGE, Alaska, 99508"
34,34,34,Alaska,"NORTH STAR HOSPITAL PHARMACY, DEBARR CIRCLE",1500 DEBARR CIRCLE,,ANCHORAGE,99508,Anchorage Borough,Anchorage Municipality,61.209466,-149.83097,"1500 DEBARR CIRCLE, ANCHORAGE, Alaska, 99508"
35,35,35,Alaska,NORTH STAR HOSPITAL PHARMACY,2530 DE BARR ROAD,,ANCHORAGE,99508,Anchorage Borough,Anchorage Municipality,,,"2530 DE BARR ROAD, ANCHORAGE, Alaska, 99508"
36,36,36,Alaska,Credena Health Pharmacy Anchorage,3300 PROVIDENCE DR,,ANCHORAGE,99508,Anchorage Borough,Anchorage Municipality,61.1894607,-149.8195054,"3300 PROVIDENCE DR, ANCHORAGE, Alaska, 99508"
37,37,37,Alaska,WALGREENS #13449,12405 BRANDON ST,,ANCHORAGE,99515,Anchorage Borough,Anchorage Municipality,61.108234625942100,-149.85620185054800,"12405 BRANDON ST, ANCHORAGE, Alaska, 99515"
38,38,38,Alaska,COSTCO PHARMACY #10,330 DIMOND BLVD,,ANCHORAGE,99515,Anchorage Borough,Anchorage Municipality,61.14431245,-149.88154857499000,"330 DIMOND BLVD, ANCHORAGE, Alaska, 99515"
39,39,39,Alaska,FRED MEYER #00071,2000 W DIMOND BLVD,,ANCHORAGE,99515,Anchorage Borough,Anchorage Municipality,61.1362816,-149.91978,"2000 W DIMOND BLVD, ANCHORAGE, Alaska, 99515"
40,40,40,Alaska,CVS/PHARMACY #17436,150 W 100TH AVE,,ANCHORAGE,99515,Anchorage Borough,Anchorage Municipality,61.129052,-149.8809485,"150 W 100TH AVE, ANCHORAGE, Alaska, 99515"
41,41,41,Alaska,CARRS PHARMACY #1813,1501 Huffman Rd,,ANCHORAGE,99515,Anchorage Borough,Anchorage Municipality,61.11025005,-149.8572646,"1501 Huffman Rd, ANCHORAGE, Alaska, 99515"
42,42,42,Alaska,WALGREENS #12680,2197 W DIMOND BLVD,,ANCHORAGE,99515,Anchorage Borough,Anchorage Municipality,61.137564313494700,-149.9199888088130,"2197 W DIMOND BLVD, ANCHORAGE, Alaska, 99515"
43,43,43,Alaska,Walmart Pharmacy 10-2071,8900 Old Seward Hwy,,ANCHORAGE,99515,Anchorage Borough,Anchorage Municipality,61.1404435,-149.8711377,"8900 Old Seward Hwy, ANCHORAGE, Alaska, 99515"
44,44,44,Alaska,CARRS PHARMACY #1805,1650 W NORTHERNLIGHTS BLVD,,ANCHORAGE,99517,Anchorage Borough,Anchorage Municipality,,,"1650 W NORTHERNLIGHTS BLVD, ANCHORAGE, Alaska, 99517"
45,45,45,Alaska,GENEVA WOODS PHARMACY,501 W International Airport Rd,,ANCHORAGE,99518,Anchorage Borough,Anchorage Municipality,61.17371433985210,-149.89238091510600,"501 W International Airport Rd, ANCHORAGE, Alaska, 99518"
46,46,46,Alaska,CARDINAL HEALTH,5360 SILVERADO WAY,,ANCHORAGE,99518,Anchorage Borough,Anchorage Municipality,61.1692874,-149.8886338,"5360 SILVERADO WAY, ANCHORAGE, Alaska, 99518"
47,47,47,Alaska,WALGREENS #15362,12051 OLD GLENN HWY,,EAGLE RIVER,99577,Anchorage Borough,Anchorage Municipality,61.32981539360090,-149.56754118135300,"12051 OLD GLENN HWY, EAGLE RIVER, Alaska, 99577"
48,48,48,Alaska,FAMILY PHARMACY,11432 BUSINESS BLVD,,EAGLE RIVER,99577,Anchorage Borough,Anchorage Municipality,61.32354076992000,-149.5732940019380,"11432 BUSINESS BLVD, EAGLE RIVER, Alaska, 99577"
49,49,49,Alaska,FRED MEYER #668,13401 Old Glenn Hwy,,EAGLE RIVER,99577,Anchorage Borough,Anchorage Municipality,61.3412997,-149.55560192492800,"13401 Old Glenn Hwy, EAGLE RIVER, Alaska, 99577"
50,50,50,Alaska,CARRS PHARMACY #1807,11431 Business Blvd,,EAGLE RIVER,99577,Anchorage Borough,Anchorage Municipality,61.323706,-149.574481,"11431 Business Blvd, EAGLE RIVER, Alaska, 99577"
51,51,51,Alaska,WAL-MART PHARMACY 10-2188,18600 EAGLE RIVER ROAD,,EAGLE RIVER,99577,Anchorage Borough,Anchorage Municipality,61.3090829,-149.53554484777800,"18600 EAGLE RIVER ROAD, EAGLE RIVER, Alaska, 99577"
52,52,52,Alaska,WHALE TAIL PHARMACY,333 Cold Storage Rd,,CRAIG,99921,Craig Borough,Prince of Wales-Hyder Census Area,55.47786684395900,-133.14041145285900,"333 Cold Storage Rd, CRAIG, Alaska, 99921"
53,53,53,Alaska,KANAKANAK HOSPITAL PHARMACY,6000 Kanakanak Rd,,DILLINGHAM,99576,Dillingham Census Area,Dillingham Census Area,59.00059275,-158.53654951755500,"6000 Kanakanak Rd, DILLINGHAM, Alaska, 99576"
54,54,54,Alaska,MEDICAL CENTER PHARMACY,1867 AIRPORT WAY,,FAIRBANKS,99701,Fairbanks North Star Borough,Fairbanks North Star Borough,64.83668672477150,-147.75820088413400,"1867 AIRPORT WAY, FAIRBANKS, Alaska, 99701"
55,55,55,Alaska,FRED MEYER #224,930 OLD STEESE HWY,,FAIRBANKS,99701,Fairbanks North Star Borough,Fairbanks North Star Borough,64.85467865,-147.69034397106500,"930 OLD STEESE HWY, FAIRBANKS, Alaska, 99701"
56,56,56,Alaska,SAFEWAY PHARMACY #2754,3627 Airport Way,,FAIRBANKS,99701,Fairbanks North Star Borough,Fairbanks North Star Borough,64.8356771,-147.80818867209800,"3627 Airport Way, FAIRBANKS, Alaska, 99701"
57,57,57,Alaska,CHIEF ANDREW ISAAC HEALTH CENTER PHARMACY,1717 WEST COWLES STREET,,FAIRBANKS,99701,Fairbanks North Star Borough,Fairbanks North Star Borough,64.83190751136710,-147.7443115878750,"1717 WEST COWLES STREET, FAIRBANKS, Alaska, 99701"
58,58,58,Alaska,WALGREENS #15944,530 OLD STEESE HWY,,FAIRBANKS,99701,Fairbanks North Star Borough,Fairbanks North Star Borough,64.850274,-147.697278,"530 OLD STEESE HWY, FAIRBANKS, Alaska, 99701"
59,59,59,Alaska,SAFEWAY PHARMACY #3410,30 College Rd,,FAIRBANKS,99701,Fairbanks North Star Borough,Fairbanks North Star Borough,64.85173435,-147.7009677393060,"30 College Rd, FAIRBANKS, Alaska, 99701"
60,60,60,Alaska,FAIRBANKS MEMORIAL HOSPITAL PHARMACY,INPATIENT PHARMACY-FMH / 1650 COWLES ST,,FAIRBANKS,99701,Fairbanks North Star Borough,Fairbanks North Star Borough,,,"INPATIENT PHARMACY-FMH / 1650 COWLES ST, FAIRBANKS, Alaska, 99701"
61,61,61,Alaska,DENALI PHARMACY,1650 COWLES ST,,FAIRBANKS,99701,Fairbanks North Star Borough,Fairbanks North Star Borough,64.83173225,-147.7402732108770,"1650 COWLES ST, FAIRBANKS, Alaska, 99701"
62,62,62,Alaska,Costco Pharmacy #1342,48 COLLEGE RD,,FAIRBANKS,99701,Fairbanks North Star Borough,Fairbanks North Star Borough,64.8530351,-147.706950289149,"48 COLLEGE RD, FAIRBANKS, Alaska, 99701"
63,63,63,Alaska,WAL-MART PHARMACY 10-2722,537 Johansen Expressway,,FAIRBANKS,99701,Fairbanks North Star Borough,Fairbanks North Star Borough,64.8564744,-147.6897416634190,"537 Johansen Expressway, FAIRBANKS, Alaska, 99701"
64,64,64,Alaska,SAFEWAY PHARMACY #1821,301 N Santa Claus Ln,,NORTH POLE,99705,Fairbanks North Star Borough,Fairbanks North Star Borough,64.7575308,-147.3542560438550,"301 N Santa Claus Ln, NORTH POLE, Alaska, 99705"
65,65,65,Alaska,ALASKA FAMILY PHARMACY,167 SANTA CLAUS LANE,,NORTH POLE,99705,Fairbanks North Star Borough,Fairbanks North Star Borough,,,"167 SANTA CLAUS LANE, NORTH POLE, Alaska, 99705"
66,66,66,Alaska,ALASKA FAMILY PHARMACY,167 SANTA CLAUS LANE,,NORTH POLE,99705,Fairbanks North Star Borough,Fairbanks North Star Borough,,,"167 SANTA CLAUS LANE, NORTH POLE, Alaska, 99705"
67,67,67,Alaska,ALASKA FAMILY PHARMACY,167 SANTA CLAUS LANE,,NORTH POLE,99705,Fairbanks North Star Borough,Fairbanks North Star Borough,,,"167 SANTA CLAUS LANE, NORTH POLE, Alaska, 99705"
68,68,68,Alaska,FRED MEYER #00485,3755 Airport Way,,FAIRBANKS,99709,Fairbanks North Star Borough,Fairbanks North Star Borough,64.8366877622881,-147.81343669192100,"3755 Airport Way, FAIRBANKS, Alaska, 99709"
69,69,69,Alaska,SEARHC HAINES MEDICAL CLINIC PHARMACY,131 1ST AVE S,,HAINES,99827,Haines Borough,Haines Borough,,,"131 1ST AVE S, HAINES, Alaska, 99827"
70,70,70,Alaska,INLET PHARMACY,1313 EAST MAPLE STREET,,BELLINGHAM,98225,Hoonah-Angoon Borough,Whatcom County,,,"1313 EAST MAPLE STREET, BELLINGHAM, Alaska, 98225"
71,71,71,Alaska,SEARHC JUNEAU MEDICAL CENTER PHARMACY,3100 CHANNEL DR.,,JUNEAU,99801,Juneau Borough,Juneau City and Borough,58.32743359073300,-134.46847953827400,"3100 CHANNEL DR., JUNEAU, Alaska, 99801"
72,72,72,Alaska,BARTLETT REGIONAL HOSPITAL PHARMACY,3260 HOSPITAL DR,,JUNEAU,99801,Juneau Borough,Juneau City and Borough,58.329258950000000,-134.46498295128200,"3260 HOSPITAL DR, JUNEAU, Alaska, 99801"
73,73,73,Alaska,FOODLAND PHARMACY,615 W. WILLOUGHBY AVE,,JUNEAU,99801,Juneau Borough,Juneau City and Borough,58.2997192,-134.4182598,"615 W. WILLOUGHBY AVE, JUNEAU, Alaska, 99801"
74,74,74,Alaska,COSTCO PHARMACY #107,5225 COMMERCIAL BLVD,,JUNEAU,99801,Juneau Borough,Juneau City and Borough,58.357870042632500,-134.4829610245620,"5225 COMMERCIAL BLVD, JUNEAU, Alaska, 99801"
75,75,75,Alaska,JUNEAU DRUG COMPANY,202 FRONT ST,,JUNEAU,99801,Juneau Borough,Juneau City and Borough,58.30068811111110,-134.4069497222220,"202 FRONT ST, JUNEAU, Alaska, 99801"
76,76,76,Alaska,SAFEWAY PHARMACY #1820,3033 Vintage Blvd,,JUNEAU,99801,Juneau Borough,Juneau City and Borough,58.37103905,-134.59494751777500,"3033 Vintage Blvd, JUNEAU, Alaska, 99801"
77,77,77,Alaska,RON'S APOTHECARY SHOPPE,9101 MENDENHALL MALL RD,,JUNEAU,99803,Juneau Borough,City and Borough of Juneau,,,"9101 MENDENHALL MALL RD, JUNEAU, Alaska, 99803"
78,78,78,Alaska,SOUTH PENINSULA HOSPITAL,4300 BARTLETT STREET,,HOMER,99603,Kenai Peninsula Borough,Kenai Peninsula Borough,59.65246045,-151.55007250373000,"4300 BARTLETT STREET, HOMER, Alaska, 99603"
79,79,79,Alaska,ULMER'S DRUG & HARDWARE,3858 LAKE ST.,,HOMER,99603,Kenai Peninsula Borough,Kenai Peninsula Borough,59.645093085769800,-151.52515693950600,"3858 LAKE ST., HOMER, Alaska, 99603"
80,80,80,Alaska,SCOTTS FAMILY PHARMACY HEALTH AND NUTRITION,4014 LAKE STREET,,HOMER,99603,Kenai Peninsula Borough,Kenai Peninsula Borough,59.64864705,-151.52711706347300,"4014 LAKE STREET, HOMER, Alaska, 99603"
81,81,81,Alaska,SAFEWAY PHARMACY #1832,90 Sterling Hwy,,HOMER,99603,Kenai Peninsula Borough,Kenai Peninsula Borough,59.6433422,-151.53417531795600,"90 Sterling Hwy, HOMER, Alaska, 99603"
82,82,82,Alaska,SAFEWAY PHARMACY #1808,10576 Kenai Spur Hwy,,KENAI,99611,Kenai Peninsula Borough,Kenai Peninsula Borough,60.56022215,-151.24094354498700,"10576 Kenai Spur Hwy, KENAI, Alaska, 99611"
83,83,83,Alaska,WAL-MART PHARMACY 10-4474,10096 KENAI SPUR HWY,,KENAI,99611,Kenai Peninsula Borough,Kenai Peninsula Borough,60.56408715,-151.22496566648700,"10096 KENAI SPUR HWY, KENAI, Alaska, 99611"
84,84,84,Alaska,NORTH STAR HEALTH CLINIC PHARMACY,201 3rd Ave Ste 201,,SEWARD,99664,Kenai Peninsula Borough,Kenai Peninsula Borough,,,"201 3rd Ave Ste 201, SEWARD, Alaska, 99664"
85,85,85,Alaska,SAFEWAY PHARMACY #2728,1907 Seward Hwy,,SEWARD,99664,Kenai Peninsula Borough,Kenai Peninsula Borough,60.126001100000000,-149.436570028755,"1907 Seward Hwy, SEWARD, Alaska, 99664"
86,86,86,Alaska,CENTRAL PENINSULA HOSPITAL PHARMACY,250 HOSPITAL PLACE,,SOLDOTNA,99669,Kenai Peninsula Borough,Kenai Peninsula Borough,60.49352565,-151.07850281621700,"250 HOSPITAL PLACE, SOLDOTNA, Alaska, 99669"
87,87,87,Alaska,"PROFESSIONAL HOME I.V., INC",182 S BIRCH STREET,,SOLDOTNA,99669,Kenai Peninsula Borough,Kenai Peninsula Borough,60.48466095331790,-151.06478030621100,"182 S BIRCH STREET, SOLDOTNA, Alaska, 99669"
88,88,88,Alaska,WALGREENS #16059,44001 STERLING HWY,,SOLDOTNA,99669,Kenai Peninsula Borough,Kenai Peninsula Borough,60.4905236,-151.0514435,"44001 STERLING HWY, SOLDOTNA, Alaska, 99669"
89,89,89,Alaska,FRED MEYER #00017,43843 Sterling Hwy,,SOLDOTNA,99669,Kenai Peninsula Borough,Kenai Peninsula Borough,60.4893652,-151.0488798865970,"43843 Sterling Hwy, SOLDOTNA, Alaska, 99669"
90,90,90,Alaska,SOLDOTNA PROFESSIONAL PHARMACY,299 N. BINKLEY,,SOLDOTNA,99669,Kenai Peninsula Borough,Kenai Peninsula Borough,,,"299 N. BINKLEY, SOLDOTNA, Alaska, 99669"
91,91,91,Alaska,ALPINE APOTHECARY,299 N. BINKLEY,,SOLDOTNA,99669,Kenai Peninsula Borough,Kenai Peninsula Borough,,,"299 N. BINKLEY, SOLDOTNA, Alaska, 99669"
92,92,92,Alaska,K I C TRIBAL HEALTH CLINIC,2960 TONGASS AVE,,KETCHIKAN,99901,Ketchikan Borough,Ketchikan Gateway Borough,55.35203722356710,-131.6830778193010,"2960 TONGASS AVE, KETCHIKAN, Alaska, 99901"
93,93,93,Alaska,ISLAND PHARMACY INC.,3526 TONGASS AVENUE,,KETCHIKAN,99901,Ketchikan Borough,Ketchikan Gateway Borough,55.35596,-131.69235,"3526 TONGASS AVENUE, KETCHIKAN, Alaska, 99901"
94,94,94,Alaska,KETCHIKAN MEDICAL CENTER,3100 TONGASS AVE,,KETCHIKAN,99901,Ketchikan Borough,Ketchikan Gateway Borough,55.3535231,-131.68702157090500,"3100 TONGASS AVE, KETCHIKAN, Alaska, 99901"
95,95,95,Alaska,SAFEWAY PHARMACY #1818,2417 Tongass Ave,,KETCHIKAN,99901,Ketchikan Borough,Ketchikan Gateway Borough,55.34832565,-131.6735028459530,"2417 Tongass Ave, KETCHIKAN, Alaska, 99901"
96,96,96,Alaska,WAL-MART PHARMACY 10-2710,4230 DON KING RD,,KETCHIKAN,99901,Ketchikan Borough,Ketchikan Gateway Borough,55.37550855,-131.72040306722600,"4230 DON KING RD, KETCHIKAN, Alaska, 99901"
97,97,97,Alaska,PROVIDENCE KODIAK ISLAND MEDICAL CENTER,1915 E REZANOF DRIVE,,KODIAK,99615,Kodiac Island Borough,Kodiak Island Borough,57.80108120494190,-152.37379130794900,"1915 E REZANOF DRIVE, KODIAK, Alaska, 99615"
98,98,98,Alaska,KANA PHARMACY,3449 E REZANOF DRIVE,,KODIAK,99615,Kodiac Island Borough,Kodiak Island Borough,57.81220260655740,-152.35431518032800,"3449 E REZANOF DRIVE, KODIAK, Alaska, 99615"
99,99,99,Alaska,SAFEWAY PHARMACY #1090,2685 Mill Bay Rd,,KODIAK,99615,Kodiac Island Borough,Kodiak Island Borough,57.8107849,-152.3675845517320,"2685 Mill Bay Rd, KODIAK, Alaska, 99615"
100,100,100,Alaska,PROVIDENCE KODIAK IS MEDICAL CENTER,1915 E. REZANOF DRIVE,,KODIAK,99615,Kodiac Island Borough,Kodiak Island Borough,57.80108120494190,-152.37379130794900,"1915 E. REZANOF DRIVE, KODIAK, Alaska, 99615"
101,101,101,Alaska,WAL-MART PHARMACY 10-2711,2911 MILL BAT RD,,KODIAK,99615,Kodiac Island Borough,Kodiak Island Borough,,,"2911 MILL BAT RD, KODIAK, Alaska, 99615"
102,102,102,Alaska,WAL-MART PHARMACY 10-2074,1350 S Seward Meridian Pkwy,,WASILLA,99564,Lake and Peninsula Borough,Lake and Peninsula Borough,61.56868204455950,-149.36034515622600,"1350 S Seward Meridian Pkwy, WASILLA, Alaska, 99564"
103,103,103,Alaska,THREE BEARS PHARMACY #60,7362 W PARKS HWY,,WASILLA,99623,Matanuska-Susitna Borough,Matanuska-Susitna Borough,61.5821988,-149.5334591,"7362 W PARKS HWY, WASILLA, Alaska, 99623"
104,104,104,Alaska,THREE BEARS PHARMACY #85,3950 S KNIK-GOOSE BAY ROAD,,WASILLA,99623,Matanuska-Susitna Borough,Matanuska-Susitna Borough,61.5366517,-149.5813567,"3950 S KNIK-GOOSE BAY ROAD, WASILLA, Alaska, 99623"
105,105,105,Alaska,THREE BEARS PHARMACY #50,7362 W. PARKS HYW,,WASILLA,99623,Matanuska-Susitna Borough,Matanuska-Susitna Borough,,,"7362 W. PARKS HYW, WASILLA, Alaska, 99623"
106,106,106,Alaska,MAT-SU MEDICAL CENTER CLINICAL PHARMACY,2500 S WOODWORTH LP,,PALMER,99645,Matanuska-Susitna Borough,Matanuska-Susitna Borough,61.5627638,-149.2578912431360,"2500 S WOODWORTH LP, PALMER, Alaska, 99645"
107,107,107,Alaska,CARRS PHARMACY #1739,664 W Evergreen Ave,,PALMER,99645,Matanuska-Susitna Borough,Matanuska-Susitna Borough,61.59794815,-149.1270737914200,"664 W Evergreen Ave, PALMER, Alaska, 99645"
108,108,108,Alaska,FRED MEYER PHARMACY #649,535 W Evergreen Ave,,PALMER,99645,Matanuska-Susitna Borough,Matanuska-Susitna Borough,61.6007056,-149.12530630956700,"535 W Evergreen Ave, PALMER, Alaska, 99645"
109,109,109,Alaska,Geneva Woods Mat-Su Pharmacy,3674 E Country Field Cir,,WASILLA,99654,Matanuska-Susitna Borough,Matanuska-Susitna Borough,61.5890709,-149.357993,"3674 E Country Field Cir, WASILLA, Alaska, 99654"
110,110,110,Alaska,WALGREENS #12681,1721 E. PARKS HWY,,WASILLA,99654,Matanuska-Susitna Borough,Matanuska-Susitna Borough,61.57681002598040,-149.40847282345100,"1721 E. PARKS HWY, WASILLA, Alaska, 99654"
111,111,111,Alaska,CARRS PHARMACY #1811,595 E Parks Hwy Ste 3000,,WASILLA,99654,Matanuska-Susitna Borough,Matanuska-Susitna Borough,,,"595 E Parks Hwy Ste 3000, WASILLA, Alaska, 99654"
112,112,112,Alaska,Our Doctor's Pharmacy,3190 E MERIDIAN PARK LOOP,,WASILLA,99654,Matanuska-Susitna Borough,Matanuska-Susitna Borough,,,"3190 E MERIDIAN PARK LOOP, WASILLA, Alaska, 99654"
113,113,113,Alaska,FRED MEYER #00653,1501 EAST PARKS DRIVE,,WASILLA,99659,Nome Census Area,Nome Census Area,,,"1501 EAST PARKS DRIVE, WASILLA, Alaska, 99659"
114,114,114,Alaska,Anikkan Inuit Iluaqutaat Subregional Pharmacy,189 Happy Valley Rd,,UNALAKLEET,99684,Nome Census Area,Nome Census Area,,,"189 Happy Valley Rd, UNALAKLEET, Alaska, 99684"
115,115,115,Alaska,NORTON SOUND REGIONAL HOSPITAL,1000 GREG KRUSCHEK Ave,,NOME,99762,Nome Census Area,Nome Census Area,64.49906305000000,-165.3781247368320,"1000 GREG KRUSCHEK Ave, NOME, Alaska, 99762"
116,116,116,Alaska,Norton Sound Regional Hospital,1000 GREG KRUSCHEK AVE,,NOME,99762,Nome Census Area,Nome Census Area,64.49906305000000,-165.3781247368320,"1000 GREG KRUSCHEK AVE, NOME, Alaska, 99762"
117,117,117,Alaska,SAMUEL SIMMONDS MEMORIAL HOSPITAL,7000 UULA STREET,,BARROW,99723,North Slope Borough,North Slope Borough,71.297403,-156.72989601511100,"7000 UULA STREET, BARROW, Alaska, 99723"
118,118,118,Alaska,"PETERSBURG REXALL DRUG, INC.",215 N Nordic Dr,,PETERSBURG,99833,Petersburg Borough,Petersburg Census Area,56.812109,-132.9574318,"215 N Nordic Dr, PETERSBURG, Alaska, 99833"
119,119,119,Alaska,WHITE'S PHARMACY,117 GRANITE CREEK ROAD,,SITKA,99835,Sitka Borough,Sitka City and Borough,57.10190805,-135.39674805000000,"117 GRANITE CREEK ROAD, SITKA, Alaska, 99835"
120,120,120,Alaska,MT EDGECUMBE HOSPITAL PHARMACY,222 TONGASS DRIVE,,SITKA,99835,Sitka Borough,Sitka City and Borough,57.0516959,-135.35507539987600,"222 TONGASS DRIVE, SITKA, Alaska, 99835"
121,121,121,Alaska,HARRY RACE HOME HEALTH & PHOTO,117 GRANITE CREEK ROAD,,SITKA,99835,Sitka Borough,Sitka City and Borough,57.10190805,-135.39674805000000,"117 GRANITE CREEK ROAD, SITKA, Alaska, 99835"
122,122,122,Alaska,INTERIOR ALASKA PHARMACY,2730 Alaska Highway,,GLENNALLEN,99737,Southeast Fairbanks Census Area,Southeast Fairbanks Census Area,,,"2730 Alaska Highway, GLENNALLEN, Alaska, 99737"
123,123,123,Alaska,CORDOVA COMMUNITY MEDICAL CENTER PHARMACY,602 Chase Avenue,,CORDOVA,99574,Valdez-Cordova Census Area,Valdez-Cordova Census Area,60.540946400000000,-145.75058865712600,"602 Chase Avenue, CORDOVA, Alaska, 99574"
124,124,124,Alaska,CROSS ROAD PHARMACY,187 GLENN HWY,,GLENNALLEN,99588,Valdez-Cordova Census Area,Valdez-Cordova Census Area,62.1076872,-145.534842,"187 GLENN HWY, GLENNALLEN, Alaska, 99588"
125,125,125,Alaska,CRNA PHARMACY,CRNA PHARMACY,,GLENNALLEN,99588,Valdez-Cordova Census Area,Valdez-Cordova Census Area,,,"CRNA PHARMACY, GLENNALLEN, Alaska, 99588"
126,126,126,Alaska,STIKINE DRUG,202 FRONT STREET,,WRANGELL,99929,Wrangell Borough,Wrangell City and Borough,56.4716152722015,-132.38386114801000,"202 FRONT STREET, WRANGELL, Alaska, 99929"
127,127,127,Alaska,Alaska Island Community Services Pharmacy,330 Church Street,,WRANGELL,99929,Wrangell Borough,Wrangell City and Borough,56.471672109612500,-132.38118755663700,"330 Church Street, WRANGELL, Alaska, 99929"
128,128,128,Alaska,SAFEWAY PHARMACY #1833,109 E Pioneer Dr,,VALDEZ,99689,Yakutat Borough,Yakutat City and Borough,61.13091549065810,-146.3450969065810,"109 E Pioneer Dr, VALDEZ, Alaska, 99689"
129,129,131,Montana,SEELEY SWAN PHARMACY,3027 HWY 83 LAZY PINE MALL,,SEELEY LAKE,59868,,Missoula County,,,"3027 HWY 83 LAZY PINE MALL, SEELEY LAKE, Montana, 59868"
130,130,132,Montana,GARY AND LEO'S INC DBA HEALTH MART,730 1ST ST,,HAVRE,59501,,Hill County,48.55228085,-109.67082570856100,"730 1ST ST, HAVRE, Montana, 59501"
131,131,133,Montana,WESTERN DRUG PHARMACY,123 5TH AVE,,HAVRE,59501,,Hill County,48.55307689795920,-109.674977,"123 5TH AVE, HAVRE, Montana, 59501"
132,132,134,Montana,VALLEY DRUG OF MALTA INC,131 S 1ST AVE E,,MALTA,59538,,Phillips County,48.3476229397424,-107.8711216365530,"131 S 1ST AVE E, MALTA, Montana, 59538"
133,133,135,Montana,406 CLINIC PHARMACY,1315 WYOMING,,MISSOULA,,,Missoula County,,,
134,134,136,Montana,406 RX PLLC DBA CULBERTSON FAMILY PHARMACY,115 BROADWAY AVE,,CULBERTSON,59218,,Roosevelt County,48.14474520530330,-104.51711737086300,"115 BROADWAY AVE, CULBERTSON, Montana, 59218"
135,135,137,Montana,406 RX PLLC DBA HARDIN FAMILY PHARMACY,901 N CENTER,,HARDIN,59034,,Big Horn County,,,"901 N CENTER, HARDIN, Montana, 59034"
136,136,138,Montana,406 RX PLLC DBA KEYSTONE FAMILY PHARMACY,407 MAIN ST,,DEER LODGE,59722,,Powell County,46.39875552841350,-112.73510642152400,"407 MAIN ST, DEER LODGE, Montana, 59722"
137,137,139,Montana,406 RX PLLC DBA ROUNDUP FAMILY PHARMACY,148 MAIN ST,,ROUNDUP,59072,,Musselshell County,46.44230226519820,-108.54183717928300,"148 MAIN ST, ROUNDUP, Montana, 59072"
138,138,140,Montana,406 RX PLLC DBA THREE FORKS FAMILY PHARMACY,117 MAIN ST UNIT A,,THREE FORKS,59752,,Gallatin County,,,"117 MAIN ST UNIT A, THREE FORKS, Montana, 59752"
139,139,141,Montana,AHS 2 LLC / DBA MEDICAL ARTS PHARMACY,209 CONWAY DR,,KALISPELL,59901,,Flathead County,48.213445903992600,-114.32766850706700,"209 CONWAY DR, KALISPELL, Montana, 59901"
140,140,142,Montana,ALBERTSONS DBA OSCO PHARMACY #47,511 CENTRAL AVE,,BILLINGS,59102,,Yellowstone County,45.7703592,-108.5287642,"511 CENTRAL AVE, BILLINGS, Montana, 59102"
141,141,143,Montana,ALBERTSONS LLC D/B/A OSCO PHARMACY #4041,3137 GRAND AVE,,BILLINGS,59102,,Yellowstone County,45.7852541,-108.592934,"3137 GRAND AVE, BILLINGS, Montana, 59102"
142,142,144,Montana,ALBERTSONS LLC D/B/A OSCO PHARMACY #20,2205 OXFORD ST,,MISSOULA,59801,,Missoula County,46.850502642857100,-114.01639989795900,"2205 OXFORD ST, MISSOULA, Montana, 59801"
143,143,145,Montana,ALBERTSONS LLC D/B/A OSCO PHARMACY #33,501 W MAIN ST,,CUT BANK,59427,,Glacier County,48.6395736,-112.3390848,"501 W MAIN ST, CUT BANK, Montana, 59427"
144,144,146,Montana,ALBERTSONS LLC D/B/A OSCO PHARMACY #43,2230 N RESERVE ST,,MISSOULA,59808,,Missoula County,46.8859202,-114.0366913,"2230 N RESERVE ST, MISSOULA, Montana, 59808"
145,145,147,Montana,ALBERTSONS LLC D/B/A OSCO PHARMACY #4040,1313 N 1ST ST,,HAMILTON,59840,,Ravalli County,46.247495,-114.1556981,"1313 N 1ST ST, HAMILTON, Montana, 59840"
146,146,148,Montana,ALBERTSONS LLC D/B/A OSCO PHARMACY #39,519 S HAYNES AVE,,MILES CITY,59301,,Custer County,46.40347658094470,-105.82279485936000,"519 S HAYNES AVE, MILES CITY, Montana, 59301"
147,147,149,Montana,ALBERTSONS LLC D/B/A OSCO PHARMACY #4025,611 N 27TH ST,,BILLINGS,59101,,Yellowstone County,45.78725330183200,-108.50876019896100,"611 N 27TH ST, BILLINGS, Montana, 59101"
148,148,150,Montana,ALBERTSONS LLC D/B/A OSCO PHARMACY #19,117 W JUNEAUX,,LEWISTOWN,59457,,Fergus County,,,"117 W JUNEAUX, LEWISTOWN, Montana, 59457"
149,149,151,Montana,ALBERTSONS LLC D/B/A OSCO PHARMACY #24,1003 E BROADWAY ST,,MISSOULA,59802,,Missoula County,46.8676222,-113.98122,"1003 E BROADWAY ST, MISSOULA, Montana, 59802"
150,150,152,Montana,ALBERTSONS LLC DBA OSCO PHARMACY #1010,3800 RUSSELL ST,,MISSOULA,59801,,Missoula County,46.838779,-114.0185582,"3800 RUSSELL ST, MISSOULA, Montana, 59801"
151,151,153,Montana,ALBERTSONS LLC DBA OSCO PHARMACY #1227,670 MAIN ST,,BILLINGS,59105,,Yellowstone County,45.810176,-108.4734668,"670 MAIN ST, BILLINGS, Montana, 59105"
152,152,154,Montana,ALBERTSONS LLC DBA OSCO PHARMACY #35,1414 3RD ST NW,,GREAT FALLS,59404,,Cascade County,47.518880885640400,-111.31031871033300,"1414 3RD ST NW, GREAT FALLS, Montana, 59404"
153,153,155,Montana,ALBERTSONS LLC DBA OSCO PHARMACY #37,2250 10TH AVE S,,GREAT FALLS,59405,,Cascade County,47.493981,-111.27171367114100,"2250 10TH AVE S, GREAT FALLS, Montana, 59405"
154,154,156,Montana,ALBERTSONS LLC DBA OSCO PHARMACY #38,1212 GRAND AVE,,BILLINGS,59102,,Yellowstone County,45.78397057398200,-108.54651671401700,"1212 GRAND AVE, BILLINGS, Montana, 59102"
155,155,157,Montana,ALBERTSONS LLC DBA OSCO PHARMACY #4008,3151 N MONTANA AVE,,HELENA,59602,,Lewis and Clark County,46.61734118367350,-112.02076628571400,"3151 N MONTANA AVE, HELENA, Montana, 59602"
156,156,158,Montana,ALBERTSONS LLC DBA OSCO PHARMACY #4023,307 N HARMON,,GLENDIVE,59330,,Dawson County,,,"307 N HARMON, GLENDIVE, Montana, 59330"
157,157,159,Montana,ALBERTSONS LLC DBA OSCO PHARMACY #42,2120 PARK ST S,,LIVINGSTON,59047,,Park County,,,"2120 PARK ST S, LIVINGSTON, Montana, 59047"
158,158,160,Montana,ALBERTSONS LLC DBA OSCO PHARMACY #6,200 SOUTH  23RD AVE,,BOZEMAN,59718,,Gallatin County,45.6758356,-111.066201,"200 SOUTH  23RD AVE, BOZEMAN, Montana, 59718"
159,159,161,Montana,ALBERTSONS LLC DBA OSCO PHARMACY #630,2334 CENTRAL AVE,,BILLINGS,59102,,Yellowstone County,45.76966978878710,-108.57465440391800,"2334 CENTRAL AVE, BILLINGS, Montana, 59102"
160,160,162,Montana,ALBERTSONS LLC DBA OSCO PHARMACY #9,6999 JACKRABBIT LN,,BELGRADE,59714,,Gallatin County,45.771702,-111.18718114922400,"6999 JACKRABBIT LN, BELGRADE, Montana, 59714"
161,161,163,Montana,ALPINE APOTHECARY,6475 HIGHWAY 93 S,,WHITEFISH,59937,,Flathead County,,,"6475 HIGHWAY 93 S, WHITEFISH, Montana, 59937"
162,162,164,Montana,ANDERSON FAMILY PHARMACY,2828 10TH AVE S,,GREAT FALLS,59405,,Cascade County,47.494221,-111.25981617664200,"2828 10TH AVE S, GREAT FALLS, Montana, 59405"
163,163,165,Montana,BAKER REXALL DRUG CO,103 S MAIN,,BAKER,59313,,Fallon County,,,"103 S MAIN, BAKER, Montana, 59313"
164,164,166,Montana,BENEFIS AMBULATORY PHARMACY,500 15TH AVE S,,GREAT FALLS,59405,,Cascade County,47.489037000000000,-111.29891506920800,"500 15TH AVE S, GREAT FALLS, Montana, 59405"
165,165,167,Montana,BENTON PHARMACY,1418 FRONT ST,,FORT BENTON,59442,,Chouteau County,47.81683371308970,-110.668177428477,"1418 FRONT ST, FORT BENTON, Montana, 59442"
166,166,168,Montana,BIG SANDY PHARMACY INC,158 JOHANNES AVE,,BIG SANDY,59520,,Chouteau County,48.17768653061220,-110.11033415306100,"158 JOHANNES AVE, BIG SANDY, Montana, 59520"
167,167,169,Montana,BIG SKY MANAGED CARE,900 13TH AVE S,,GREAT FALLS,59405,,Cascade County,47.490989,-111.292009,"900 13TH AVE S, GREAT FALLS, Montana, 59405"
168,168,170,Montana,BIG SKY MANAGED CARE - GREAT FALLS,915 1ST AVE S,,GREAT FALLS,59401,,Cascade County,47.50427760581240,-111.29168842077900,"915 1ST AVE S, GREAT FALLS, Montana, 59401"
169,169,171,Montana,BIG SKY MANAGED CARE - HELENA,900 JACKSON ST,,HELENA,59601,,Lewis and Clark County,46.5961292,-112.032404,"900 JACKSON ST, HELENA, Montana, 59601"
170,170,172,Montana,BIG SKY PHARMACY INC,701 MAIN ST,,MILES CITY,59301,,Custer County,46.406617,-105.849105,"701 MAIN ST, MILES CITY, Montana, 59301"
171,171,173,Montana,BIGFORK DRUG INC,8111 MT HWY 35,,BIGFORK,59911,,Flathead County,,,"8111 MT HWY 35, BIGFORK, Montana, 59911"
172,172,174,Montana,BIGHORN VALLEY PHARMACY,10 WEST 4TH ST,,HARDIN,59034,,Big Horn County,,,"10 WEST 4TH ST, HARDIN, Montana, 59034"
173,173,175,Montana,BIGHORN VALLEY PHARMACY-ASHLAND,501 MAIN ST,,ASHLAND,59003,,Rosebud County,45.5917058,-106.26742916410000,"501 MAIN ST, ASHLAND, Montana, 59003"
174,174,176,Montana,BILLINGS CLINIC ALLCARE PHARMACY SOLUTIONS,1015 BROADWATER,,BILLINGS,59102,,Yellowstone County,45.777115161421500,-108.54140445886500,"1015 BROADWATER, BILLINGS, Montana, 59102"
175,175,177,Montana,BILLINGS CLINIC SPECIALTY PHARMACY,1015 BROADWATER,,BILLINGS,59102,,Yellowstone County,45.777115161421500,-108.54140445886500,"1015 BROADWATER, BILLINGS, Montana, 59102"
176,176,178,Montana,BILLMONT RX LLC DBA RITE CARE PHARMACY,1603 GRAND AVE,,BILLINGS,59102,,Yellowstone County,45.7851591,-108.5582522,"1603 GRAND AVE, BILLINGS, Montana, 59102"
177,177,179,Montana,BITCH CREEK CORPORATION DBA TOWNSEND DRUG,308 1/2 BORADWAY,,TOWNSEND,59644,,Broadwater County,,,"308 1/2 BORADWAY, TOWNSEND, Montana, 59644"
178,178,180,Montana,BITTERROOT DRUG,211 WEST MAIN ST,,HAMILTON,59840,,Ravalli County,46.24693436734690,-114.15740481632700,"211 WEST MAIN ST, HAMILTON, Montana, 59840"
179,179,181,Montana,BLACKTAIL PHARMACY,125 E GLENDALE ST,,DILLON,59725,,Beaverhead County,45.21635130647670,-112.63717135568600,"125 E GLENDALE ST, DILLON, Montana, 59725"
180,180,182,Montana,BOZEMAN CHP PHARMACY,214 E MENDENHALL ST,,BOZEMAN,59715,,Gallatin County,45.6802734,-111.0339201,"214 E MENDENHALL ST, BOZEMAN, Montana, 59715"
181,181,183,Montana,BOZEMAN HEALTH BIG SKY MEDICAL CENTER PHARMACY,334 TOWN CENTER AVE,,BIG SKY,59716,,Gallatin County,45.260442050000000,-111.30095351759600,"334 TOWN CENTER AVE, BIG SKY, Montana, 59716"
182,182,184,Montana,BOZEMAN HEALTH DEACONESS HOSPITAL HIGHLAND PARK PHARMCY,925 HIGHLAND BLVD,,BOZEMAN,59715,,Gallatin County,45.669053515156100,-111.01784576439600,"925 HIGHLAND BLVD, BOZEMAN, Montana, 59715"
183,183,185,Montana,BROADUS FOODS INC DBA BROADUS IGA,120 S PARK AVE,,BROADUS,59317,,Powder River County,45.442291,-105.4083494,"120 S PARK AVE, BROADUS, Montana, 59317"
184,184,186,Montana,BROTERIN INC DBA EVERGREEN COMPOUNDING PHARMACY,2640 US HWY 2 E,,KALISPELL,59901,,Flathead County,,,"2640 US HWY 2 E, KALISPELL, Montana, 59901"
185,185,187,Montana,BULLHOOK COMMUNITY HEALTH CENTER PHARMACY,521 4TH ST,,HAVRE,59501,,Hill County,48.550166377066900,-109.67526335354300,"521 4TH ST, HAVRE, Montana, 59501"
186,186,188,Montana,CAPITAL RX,2600 WINNE AVE,,HELENA,59601,,Lewis and Clark County,46.581538,-111.993958,"2600 WINNE AVE, HELENA, Montana, 59601"
187,187,189,Montana,CASTLE MOUNTAIN DRUG PLLC,4271 US HWY 12 E,,WHITE SULPHUR SPRINGS,59645,,Meagher County,,,"4271 US HWY 12 E, WHITE SULPHUR SPRINGS, Montana, 59645"
188,188,190,Montana,CHESTER PHARMACY INC,30 MAIN ST,,CHESTER,59522,,Liberty County,48.513253745851800,-110.96607528076200,"30 MAIN ST, CHESTER, Montana, 59522"
189,189,191,Montana,CHINOOK PHARMACY INC,300 INDIANA ST,,CHINOOK,59523,,Blaine County,48.592716,-109.230618,"300 INDIANA ST, CHINOOK, Montana, 59523"
190,190,192,Montana,CHOTEAU DRUG INC,102 MAIN AVE N,,CHOTEAU,59422,,Teton County,,,"102 MAIN AVE N, CHOTEAU, Montana, 59422"
191,191,193,Montana,CLINIC PHARMACY,1400 29TH ST SOUTH,,GREAT FALLS,59405,,Cascade County,47.490439,-111.257455,"1400 29TH ST SOUTH, GREAT FALLS, Montana, 59405"
192,192,194,Montana,CLINIC PHARMACY,214 14TH AVE SW,,SIDNEY,59270,,Richland County,47.71550475331540,-104.17407705427300,"214 14TH AVE SW, SIDNEY, Montana, 59270"
193,193,195,Montana,COMMUNITY HEALTH CARE CENTER INC,601 1ST AVE N,,GREAT FALLS,59401,,Cascade County,47.506449,-111.297065,"601 1ST AVE N, GREAT FALLS, Montana, 59401"
194,194,196,Montana,COMMUNITY HEALTH CENTER PHARMACY,1145 S MONTANA STREET,,BUTTE,59701,,Silver Bow County,46.0078811,-112.5391591,"1145 S MONTANA STREET, BUTTE, Montana, 59701"
195,195,197,Montana,CORVALLIS DRUG,1029 MAIN ST,,CORVALLIS,59828,,Ravalli County,46.31426,-114.115587,"1029 MAIN ST, CORVALLIS, Montana, 59828"
196,196,198,Montana,COSTCO PHARMACY,3220 NORTH RESERVE ST,,MISSOULA,59808,,Missoula County,46.89425875,-114.03871367502900,"3220 NORTH RESERVE ST, MISSOULA, Montana, 59808"
197,197,199,Montana,COSTCO PHARMACY #633,2195 EAST CUSTER AVE,,HELENA,59602,,Lewis and Clark County,46.615097650000000,-112.0024281,"2195 EAST CUSTER AVE, HELENA, Montana, 59602"
198,198,200,Montana,COSTCO PHARMACY #69,2290 KING AVE WEST,,BILLINGS,59102,,Yellowstone County,45.75304535,-108.57333061638600,"2290 KING AVE WEST, BILLINGS, Montana, 59102"
199,199,201,Montana,COSTCO PHARMACY #745,2330 US HWY 93 NORTH,,KALISPELL,59901,,Flathead County,,,"2330 US HWY 93 NORTH, KALISPELL, Montana, 59901"
200,200,202,Montana,COSTCO PHARMACY #96,2505 CATRON ST,,BOZEMAN,59718,,Gallatin County,45.7135185,-111.07083094357800,"2505 CATRON ST, BOZEMAN, Montana, 59718"
201,201,203,Montana,CREDENA HEALTH PHARMACY LAKESHORE,50331 US HWY 93,,POLSON,59860,,Lake County,,,"50331 US HWY 93, POLSON, Montana, 59860"
202,202,204,Montana,CREDENA HEALTH PHARMACY ST JOSEPH,6 13TH AVE E,,POLSON,59860,,Lake County,47.6828437,-114.16263884935400,"6 13TH AVE E, POLSON, Montana, 59860"
203,203,205,Montana,CREDENA HEALTH PHARMACY ST PATRICK,500 WEST BROADWAY,,MISSOULA,59802,,Missoula County,46.875147850000000,-114.00026608583500,"500 WEST BROADWAY, MISSOULA, Montana, 59802"
204,204,206,Montana,CVS # 8617,603 NORTH MONTANA,,HELENA,59601,,Lewis and Clark County,46.59135693333330,-112.03318426666700,"603 NORTH MONTANA, HELENA, Montana, 59601"
205,205,207,Montana,CVS # 8618,1300 EAST PARK,,ANACONDA,59711,,Deer Lodge County,46.1270182,-112.935243,"1300 EAST PARK, ANACONDA, Montana, 59711"
206,206,208,Montana,CVS # 8619,526 EUCLID AVE,,HELENA,59601,,Lewis and Clark County,46.599229077407800,-112.04419437285500,"526 EUCLID AVE, HELENA, Montana, 59601"
207,207,209,Montana,CVS #8627,1275 HARRISON,,BUTTE,59701,,Silver Bow County,46.0023128577762,-112.52202415480200,"1275 HARRISON, BUTTE, Montana, 59701"
208,208,210,Montana,CVS PHARMACY # 8622,1902 BROOKS ST,,MISSOULA,59801,,Missoula County,46.853161428571400,-114.01133742857100,"1902 BROOKS ST, MISSOULA, Montana, 59801"
209,209,211,Montana,CVS PHARMACY #8621,115 NORTH 19TH AVE,,BOZEMAN,59718,,Gallatin County,45.68185664056930,-111.06240970319400,"115 NORTH 19TH AVE, BOZEMAN, Montana, 59718"
210,210,212,Montana,DAHL MEMORIAL HEALTHCARE COMMUNITY PHARMACY,215 SANDY STREET,,EKALAKA,59324,,Carter County,45.8881898,-104.54977219672300,"215 SANDY STREET, EKALAKA, Montana, 59324"
211,211,213,Montana,DISCOUNT PHARMACY INC DBA DISCOUNT PHARMACY,1520 3RD ST NW,,GREAT FALLS,59404,,Cascade County,47.51949828253620,-111.30976845146300,"1520 3RD ST NW, GREAT FALLS, Montana, 59404"
212,212,214,Montana,ELKHORN PHARMACY,215 N MAIN,PO BOX 26,BOULDER,59632,,Jefferson County,46.2422424,-112.1170488,"215 N MAIN, BOULDER, Montana, 59632"
213,213,215,Montana,ENNIS PHARMACY: YESTERDAYS SODA FOUNTAIN,124 E MAIN,,ENNIS,59729,,Madison County,45.3490778,-111.7336473,"124 E MAIN, ENNIS, Montana, 59729"
214,214,216,Montana,EUREKA DRUG,546 HWY 93 N,,EUREKA,59917,,Lincoln County,,,"546 HWY 93 N, EUREKA, Montana, 59917"
215,215,217,Montana,EXPRESS COMPOUNDING LLC,2086 HWY 93,,VICTOR,59875,,Ravalli County,,,"2086 HWY 93, VICTOR, Montana, 59875"
216,216,218,Montana,FAIRFIELD DRUG INC,407 CENTRAL AVE,,FAIRFIELD,59436,,Teton County,47.61468339163830,-111.9814234718520,"407 CENTRAL AVE, FAIRFIELD, Montana, 59436"
217,217,219,Montana,FAMILY HEALTH PHARMACY,63307 US HWY 93 S,,RONAN,59864,,Lake County,,,"63307 US HWY 93 S, RONAN, Montana, 59864"
218,218,220,Montana,FAMILY PHARMACY,3804 EASTSIDE HWY,,STEVENSVILLE,59870,,Ravalli County,46.512755,-114.085214,"3804 EASTSIDE HWY, STEVENSVILLE, Montana, 59870"
219,219,221,Montana,FLORENCE PHARMACY - NORTH,5549 OLD HWY 93,,FLORENCE,59833,,Ravalli County,,,"5549 OLD HWY 93, FLORENCE, Montana, 59833"
220,220,222,Montana,FRANKS PHARMACY LLC DBA GRANITE PHARMACY LIBBY,1401 MINNESOTA AVE,,LIBBY,59923,,Lincoln County,48.3830025,-115.548359,"1401 MINNESOTA AVE, LIBBY, Montana, 59923"
221,221,223,Montana,G AND E VENTURES INC / DBA GRANITE PHARMACY FRENCHTOWN,16862 BECKWITH ST,PO BOX 100,FRENCHTOWN,59834,,Missoula County,47.0152763,-114.2301802,"16862 BECKWITH ST, FRENCHTOWN, Montana, 59834"
222,222,224,Montana,GARDEN PARK MANAGMENT LLC/ DBA COLE DRUG,PO BOX 1490,,BIG TIMBER,59011,,Sweet Grass County,,,"PO BOX 1490, BIG TIMBER, Montana, 59011"
223,223,225,Montana,GENEVA WOODS PHARMACY #48550,1310 ELM ST,,HELENA,59601,,Lewis and Clark County,46.607825530612200,-112.01851781632700,"1310 ELM ST, HELENA, Montana, 59601"
224,224,226,Montana,GENOA HEALTHCARE LLC,3737 GRAND AVE STE 6 RM P,,BILLINGS,59102,,Yellowstone County,,,"3737 GRAND AVE STE 6 RM P, BILLINGS, Montana, 59102"
225,225,227,Montana,"GENOA HEALTHCARE, LLC",699 FARMHOUSE LN,,BOZEMAN,59715,,Gallatin County,45.67022947790280,-111.00735252748500,"699 FARMHOUSE LN, BOZEMAN, Montana, 59715"
226,226,228,Montana,GLACIER PHARMACY LLC,601 W MAIN,,CUT BANK,59427,,Glacier County,,,"601 W MAIN, CUT BANK, Montana, 59427"
227,227,229,Montana,GOOD MEDICINE PHARMACY - NVH,2100 9TH ST W,,COLUMBIA FALLS,59912,,Flathead County,,,"2100 9TH ST W, COLUMBIA FALLS, Montana, 59912"
228,228,230,Montana,GRANITE PHARMACY HEALTH SOLUTIONS,2230 27TH AVE W,,MISSOULA,59804,,Missoula County,,,"2230 27TH AVE W, MISSOULA, Montana, 59804"
229,229,231,Montana,GRANITE PHARMACY LLC,106 NORTH MONTGOMERY,PO BOX 641,PHILIPSBURG,59858,,Granite County,46.33212816189480,-113.29280228009800,"106 NORTH MONTGOMERY, PHILIPSBURG, Montana, 59858"
230,230,232,Montana,GRANITE PHARMACY MISSOULA LLC,2230 27TH AVE W,,MISSOULA,59804,,Missoula County,,,"2230 27TH AVE W, MISSOULA, Montana, 59804"
231,231,233,Montana,HEALTH SERVICE PHARMACY / UNIVERSITY OF MONTANA,634 EDDY AVE,,MISSOULA,59801,,Missoula County,46.863127530136700,-113.98831209649400,"634 EDDY AVE, MISSOULA, Montana, 59801"
232,232,234,Montana,HEALTHCARE PLUS LTC,ONE 7TH AVE E,,POLSON,59860,,Lake County,,,"ONE 7TH AVE E, POLSON, Montana, 59860"
233,233,235,Montana,HEALTHCARE PROVIDERS,1900 N 1ST ST,,HAMILTON,59840,,Ravalli County,46.247495,-114.1556981,"1900 N 1ST ST, HAMILTON, Montana, 59840"
234,234,236,Montana,HEFFERNAN DRUG INC,918 SW HIGGINS AVE,,MISSOULA,59803,,Missoula County,46.835962020134200,-114.01167870469800,"918 SW HIGGINS AVE, MISSOULA, Montana, 59803"
235,235,237,Montana,HI-LINE MEDICAL SERVICES INC,DBA 5TH AVE PHARMACY AND GIFT,,GLASGOW,59230,,Valley County,,,"DBA 5TH AVE PHARMACY AND GIFT, GLASGOW, Montana, 59230"
236,236,238,Montana,HUSTON HEALTHCARE LLC DBA WHITEFISH PHARMACY,1111 BAKER AVE,,WHITEFISH,59937,,Flathead County,48.4010802,-114.3369206,"1111 BAKER AVE, WHITEFISH, Montana, 59937"
237,237,239,Montana,IPHARM PHARMACY,32 CAMPUS DRIVE,,MISSOULA,598121522,,Missoula County,,,"32 CAMPUS DRIVE, MISSOULA, Montana, 598121522"
238,238,240,Montana,JUROS MEDICAL INC,2043 GRAND AVE,,BILLINGS,59102,,Yellowstone County,45.784133873619000,-108.56794063757300,"2043 GRAND AVE, BILLINGS, Montana, 59102"
239,239,241,Montana,KC'S WESTERN DRUG,1313 WEST PARK ST,,LIVINGSTON,59047,,Park County,45.65115009090910,-110.57199545454500,"1313 WEST PARK ST, LIVINGSTON, Montana, 59047"
240,240,242,Montana,KC'S WESTERN DRUG DBA GARDINER PHARMACY,208 PARK AVE,,GARDINER,59030,,Park County,,,"208 PARK AVE, GARDINER, Montana, 59030"
241,241,243,Montana,KC'S WESTERN DRUG DBA WESTERN DRUG COMPOUNDING LAB,1313 W PARK ST,,LIVINGSTON,59047,,Park County,45.65115009090910,-110.57199545454500,"1313 W PARK ST, LIVINGSTON, Montana, 59047"
242,242,244,Montana,KEYSTONE DRUG,407 MAIN,,DEER LODGE,59722,,Powell County,46.40434644368420,-112.73478555221100,"407 MAIN, DEER LODGE, Montana, 59722"
243,243,245,Montana,KOOTENAI DRUG,611 EAST MISSOULA AVE,,TROY,59935,,Lincoln County,48.4599262,-115.8938859,"611 EAST MISSOULA AVE, TROY, Montana, 59935"
244,244,246,Montana,"LEE AND DADS GROCERY, INC",DBA TOWN AND COUNTRY FOODS,,BELGRADE,59714,,Gallatin County,,,"DBA TOWN AND COUNTRY FOODS, BELGRADE, Montana, 59714"
245,245,247,Montana,LOLO DRUG,103 GLACIER DR,,LOLO,59847,,Missoula County,46.764935,-114.079239,"103 GLACIER DR, LOLO, Montana, 59847"
246,246,248,Montana,MAC'S CHC PHARMACY,317 MADISON,,SHERIDAN,59749,,Madison County,45.45321356914110,-112.19159648802900,"317 MADISON, SHERIDAN, Montana, 59749"
247,247,249,Montana,MARIAS HEALTHCARE SERVICES INC,670 PARK AVE,,SHELBY,59474,,Toole County,48.5092175553094,-111.85034924747200,"670 PARK AVE, SHELBY, Montana, 59474"
248,248,250,Montana,MATOVICH ENTERPRISES INC DBA STILLWATER FAMILY PHARMACY,133 NORTH 5TH ST,,COLUMBUS,59019,,Stillwater County,45.63883095,-109.25339515457600,"133 NORTH 5TH ST, COLUMBUS, Montana, 59019"
249,249,251,Montana,MILK RIVER PHARMACY,42465 US HIGHWAY 2,PO BOX 965,HARLEM,59526,,Blaine County,,,"42465 US HIGHWAY 2, HARLEM, Montana, 59526"
250,250,252,Montana,MINERAL PHARMACY,207 RIVER ST,,SUPERIOR,59872,,Mineral County,47.1939059,-114.891432,"207 RIVER ST, SUPERIOR, Montana, 59872"
251,251,253,Montana,MINING CITY COMPOUNDING PHARMACY,327 1/2 EXCELSIOR,PO BOX 105,BUTTE,59703,,Silver Bow County,46.0221908,-112.5493921,"327 1/2 EXCELSIOR, BUTTE, Montana, 59703"
252,252,254,Montana,MIRX PHARMACY,993 S 24TH ST W,,BILLINGS,59102,,Yellowstone County,45.754586969077400,-108.5759966708680,"993 S 24TH ST W  , BILLINGS, Montana, 59102"
253,253,255,Montana,MISSION DRUG LLC,110 N MAIN,,SAINT IGNATIUS,59865,,Lake County,,,"110 N MAIN, SAINT IGNATIUS, Montana, 59865"
254,254,256,Montana,MISSION DRUG LLC,110 NORTH MAIN,,SAINT IGNATIUS,59865,,Lake County,47.31889968181820,-114.09680072727300,"110 NORTH MAIN, SAINT IGNATIUS, Montana, 59865"
255,255,257,Montana,MISSOULA FRESH MARKET PHARMACY,800 WEST BROADWAY ST,,MISSOULA,59802,,Missoula County,46.876018200000000,-114.00491443042600,"800 WEST BROADWAY ST, MISSOULA, Montana, 59802"
256,256,258,Montana,MISSOULA FRESH MARKET PHARMACY #1-3416,3801 SOUTH RESERVE ST,,MISSOULA,59801,,Missoula County,46.836493,-114.039581,"3801 SOUTH RESERVE ST, MISSOULA, Montana, 59801"
257,257,259,Montana,MISSOULA PHARMACY,1211 SOUTH RESERVE ST,,MISSOULA,59801,,Missoula County,46.86044158643600,-114.03969871462200,"1211 SOUTH RESERVE ST, MISSOULA, Montana, 59801"
258,258,260,Montana,MONTANA COMPOUNDING PHARMACY,111 N HIGGINS,,MISSOULA,59802,,Missoula County,,,"111 N HIGGINS, MISSOULA, Montana, 59802"
259,259,261,Montana,MONTANA CVS PHARMACY LLC DBA CVS PHARMACY # 8624,2001 10TH AVE SOUTH,,GREAT FALLS,59405,,Cascade County,47.494291,-111.272862,"2001 10TH AVE SOUTH, GREAT FALLS, Montana, 59405"
260,260,262,Montana,MONTANA CVS PHARMACY LLC DBA CVS PHARMACY # 4278,3095 NORTH MONTANA AVE,,HELENA,59601,,Lewis and Clark County,46.61622066666670,-112.02074411111100,"3095 NORTH MONTANA AVE, HELENA, Montana, 59601"
261,261,263,Montana,MONTANA CVS PHARMACY LLC DBA CVS PHARMACY #,2420 N RESERVE ST,,MISSOULA,59808,,Missoula County,46.888220700000000,-114.03647924267700,"2420 N RESERVE ST, MISSOULA, Montana, 59808"
262,262,264,Montana,MONTANA CVS PHARMACY LLC DBA CVS PHARMACY #5307,823 N 27TH ST,,BILLINGS,59101,,Yellowstone County,45.789038770219400,-108.510534589746,"823 N 27TH ST, BILLINGS, Montana, 59101"
263,263,265,Montana,MONTANA CVS PHARMACY LLC DBA CVS PHARMACY # 8623,2402 GRAND AVE,,BILLINGS,59102,,Yellowstone County,45.783955751564900,-108.57998863262900,"2402 GRAND AVE, BILLINGS, Montana, 59102"
264,264,266,Montana,MONTANA CVS PHARMACY LLC DBA CVS PHARMACY # 8944,617 CENTRAL AVE,,BILLINGS,59102,,Yellowstone County,45.76991979464290,-108.53095929532800,"617 CENTRAL AVE, BILLINGS, Montana, 59102"
265,265,267,Montana,MONTANA CVS PHARMACY LLC DBA CVS PHARMACY #,2601 CENTRAL AVE,,BILLINGS,59102,,Yellowstone County,45.77129665,-108.58271917880100,"2601 CENTRAL AVE, BILLINGS, Montana, 59102"
266,266,268,Montana,MONTANA CVS PHARMACY LLC DBA CVS PHARMACY # 5301,1311 GRAND AVE,,BILLINGS,59102,,Yellowstone County,45.784122,-108.54903784159800,"1311 GRAND AVE, BILLINGS, Montana, 59102"
267,267,269,Montana,MONTANA CVS PHARMACY LLC DBA CVS PHARMACY # 5302,425 EAST MAIN ST,,BILLINGS,59105,,Yellowstone County,,,"425 EAST MAIN ST, BILLINGS, Montana, 59105"
268,268,270,Montana,MONTANA CVS PHARMACY LLC DBA CVS PHARMACY # 5305,307 SOUTHEAST 4TH ST,,LAUREL,59044,,Yellowstone County,45.66541324414720,-108.77090006689000,"307 SOUTHEAST 4TH ST, LAUREL, Montana, 59044"
269,269,271,Montana,MONTANA RX SOLUTIONS PLLC / DBA/COLSTRIP FAMILY PHARMACY,6230 MAIN ST,,COLSTRIP,59323,,Rosebud County,45.88495735,-106.63486460199000,"6230 MAIN ST, COLSTRIP, Montana, 59323"
270,270,272,Montana,MORGAN CREEK COMPOUNDING PHARMACY,71 25TH ST W,,BILLINGS,59102,,Yellowstone County,45.77109368475790,-108.57969258529500,"71 25TH ST W, BILLINGS, Montana, 59102"
271,271,273,Montana,NCS HEALTHCARE OF MONTANA LLC DBA OMNICARE OF BILLINGS,2747 ENTERPRISE AVE,,BILLINGS,59102,,Yellowstone County,45.750824114867400,-108.58511635986000,"2747 ENTERPRISE AVE, BILLINGS, Montana, 59102"
272,272,274,Montana,NORTH RIDGE PHARMACY,4718 23RD AVE,,MISSOULA,59803,,Missoula County,46.82795350224990,-114.035265,"4718 23RD AVE, MISSOULA, Montana, 59803"
273,273,275,Montana,NORTHEAST MONTANA HALTH SERVICES,1115 4TH AVE NORTH,,WOLF POINT,59201,,McCone County,48.101333339845000,-105.64292677071200,"1115 4TH AVE NORTH, WOLF POINT, Montana, 59201"
274,274,276,Montana,NORTHEAST MONTANA HEALTH SERVICES,213 H ST EAST,,POPLAR,59255,,Richland County,48.11482978179100,-105.19454790472100,"213 H ST EAST, POPLAR, Montana, 59255"
275,275,277,Montana,NORTHERN MONTANA PHARMACY,20 WEST 13TH ST,,HAVRE,59501,,Hill County,,,"20 WEST 13TH ST, HAVRE, Montana, 59501"
276,276,278,Montana,NORTHTOWN DRUG LLC,100 MAIN ST,,SHELBY,59474,,Toole County,48.5038556,-111.8521955,"100 MAIN ST, SHELBY, Montana, 59474"
277,277,279,Montana,NORTHWEST COMMUNITY HEALTH CENTER PHARMACY,320 EAST 2ND ST,,LIBBY,59923,,Lincoln County,48.393264999039700,-115.5482657209920,"320 EAST 2ND ST, LIBBY, Montana, 59923"
278,278,280,Montana,OLSON'S DRUG,5 4TH AVE SE,,CONRAD,59425,,Pondera County,48.16901333207980,-111.94667648779400,"5 4TH AVE SE, CONRAD, Montana, 59425"
279,279,281,Montana,ONEHEALTH PHARMACY,305 S 4TH ST,,MILES CITY,59301,,Custer County,46.40091480127460,-105.8495919331710,"305 S 4TH ST, MILES CITY, Montana, 59301"
280,280,282,Montana,OPTION CARE ENTERPRISES INC,2304 N 7TH AVE,,BOZEMAN,59715,,Gallatin County,45.7023477,-111.0450748,"2304 N 7TH AVE, BOZEMAN, Montana, 59715"
281,281,283,Montana,OSCO PHARMACY #18,900 W IDAHO,,KALISPELL,59901,,Flathead County,48.2020738,-114.3153832,"900 W IDAHO, KALISPELL, Montana, 59901"
282,282,284,Montana,OSRX INC,1120 KENSINGTON AVE,,MISSOULA,59801,,Missoula County,46.85340426530610,-114.01523993877600,"1120 KENSINGTON AVE, MISSOULA, Montana, 59801"
283,283,285,Montana,PARTNERS SOLUTIONS,2673 PALMER ST,,MISSOULA,59808,,Missoula County,46.886944,-114.028828,"2673 PALMER ST, MISSOULA, Montana, 59808"
284,284,286,Montana,PARTNERSHIP HEALTH CENTER,401 W RAILROAD,,MISSOULA,59802,,Missoula County,46.8766835,-113.9948211,"401 W RAILROAD, MISSOULA, Montana, 59802"
285,285,287,Montana,PHARM406 INC,1410 38TH ST W,,BILLINGS,59102,,Yellowstone County,45.7875576,-108.6112339,"1410 38TH ST W, BILLINGS, Montana, 59102"
286,286,288,Montana,PHARMACY 1 AT THE MHC,1245 N 29TH STREET,,BILLINGS,59101,,Yellowstone County,45.79441377777780,-108.51955338095200,"1245 N 29TH STREET, BILLINGS, Montana, 59101"
287,287,289,Montana,PHARMACY 1 LTC,2900 12TH NORTH STE 110 B,,BILLINGS,59101,,Yellowstone County,,,"2900 12TH NORTH STE 110 B, BILLINGS, Montana, 59101"
288,288,290,Montana,PHARMACY I,2900 12TH AVE N STE 110 A,,BILLINGS,59101,,Yellowstone County,,,"2900 12TH AVE N STE 110 A, BILLINGS, Montana, 59101"
289,289,291,Montana,PHARMALOGIC MONTANA INC,4404 EXPRESSWAY,,MISSOULA,59808,,Missoula County,46.911891464646500,-114.0577326969700,"4404 EXPRESSWAY, MISSOULA, Montana, 59808"
290,290,292,Montana,PHARMERICA LONG TERM CARE LLC DBA PHARMERICA,625 CENTRAL AVE WEST,,GREAT FALLS,59404,,Cascade County,47.50766704081630,-111.32255064285700,"625 CENTRAL AVE WEST, GREAT FALLS, Montana, 59404"
291,291,293,Montana,PINTLER PHARMACY INC,203 E PARK,,ANACONDA,59711,,Deer Lodge County,,,"203 E PARK, ANACONDA, Montana, 59711"
292,292,294,Montana,PLAINS DRUG INC,214 RAILROAD,,PLAINS,59859,,Sanders County,47.4555394,-114.8771313,"214 RAILROAD, PLAINS, Montana, 59859"
293,293,295,Montana,PLAZA PHARMACY,2800 11TH AVE SOUTH,,GREAT FALLS,59405,,Cascade County,47.492632,-111.258981,"2800 11TH AVE SOUTH, GREAT FALLS, Montana, 59405"
294,294,296,Montana,PLENTYWOOD DRUG INC,119 NORTH MAIN,,PLENTYWOOD,59254,,Sheridan County,48.774670897167500,-104.55894991003800,"119 NORTH MAIN, PLENTYWOOD, Montana, 59254"
295,295,297,Montana,PRICE RITE DRUG,910 NORTH 7TH AVE,,BOZEMAN,59715,,Gallatin County,45.6887768,-111.0449923,"910 NORTH 7TH AVE, BOZEMAN, Montana, 59715"
296,296,298,Montana,PUBLIC DRUG COMPANY INC,324 CENTRAL AVE,,GREAT FALLS,59401,,Cascade County,47.50500815,-111.30109622497700,"324 CENTRAL AVE, GREAT FALLS, Montana, 59401"
297,297,299,Montana,PUREVIEW HEALTH CENTER,1930 9TH AVE,,HELENA,59601,,Lewis and Clark County,46.589235054281800,-112.00673253027600,"1930 9TH AVE, HELENA, Montana, 59601"
298,298,300,Montana,R AND R HEALTH CARE SOLUTIONS  INC,63802 US HWY 93,,RONAN,59864,,Lake County,,,"63802 US HWY 93, RONAN, Montana, 59864"
299,299,301,Montana,RED LODGE DRUG,211 NORTH BRDWAY,,RED LODGE,59068,,Carbon County,,,"211 NORTH BRDWAY, RED LODGE, Montana, 59068"
300,300,302,Montana,REMEDIES LAKESIDE,910 NORTH 7TH AVE,,LAKESIDE,59922,,Flathead County,,,"910 NORTH 7TH AVE, LAKESIDE, Montana, 59922"
301,301,303,Montana,REMEDIES PHARMACY,324 CENTRAL AVE,,HARLOWTON,59036,,Wheatland County,,,"324 CENTRAL AVE, HARLOWTON, Montana, 59036"
302,302,304,Montana,REMEDIES PHARMACY & GIFTS,1930 9TH AVE,,CHESTER,59522,,Liberty County,,,"1930 9TH AVE, CHESTER, Montana, 59522"
303,303,305,Montana,REYNOLDS PHARMACY LLC,63802 US HWY 93,,GLENDIVE,59330,,Dawson County,,,"63802 US HWY 93, GLENDIVE, Montana, 59330"
304,304,306,Montana,RIDGEWAY PHARMACY CLOSED DOOR,2824 HWY 93 NORTH,,VICTOR,59875,,Ravalli County,,,"2824 HWY 93 NORTH, VICTOR, Montana, 59875"
305,305,307,Montana,RIVERS EDGE PHARMACY INC,39 STEVI CUT OFF RD,,STEVENSVILLE,59870,,Ravalli County,,,"39 STEVI CUT OFF RD, STEVENSVILLE, Montana, 59870"
306,306,308,Montana,RIVERSTONE HEALTH PHARMACY,123 S 27TH ST,,BILLINGS,59101,,Yellowstone County,45.779865,-108.5013204,"123 S 27TH ST, BILLINGS, Montana, 59101"
307,307,309,Montana,ROCKY MOUNTAIN APOTHECARY DBA ROCKY MOUNTAIN PHARMACY,25 N WILLSON,,BOZEMAN,59715,,Gallatin County,,,"25 N WILLSON, BOZEMAN, Montana, 59715"
308,308,310,Montana,ROSAUERS FOOD AND DRUG #14,WEST 703 NINTH,,LIBBY,59923,,Lincoln County,,,"WEST 703 NINTH, LIBBY, Montana, 59923"
309,309,311,Montana,ROSAUERS FOOD AND DRUG #27,2350 RESERVE ST,,MISSOULA,59801,,Missoula County,46.84925712121210,-114.03949521212100,"2350 RESERVE ST, MISSOULA, Montana, 59801"
310,310,312,Montana,ROSAUERS FOOD AND DRUG CENTER #37,2150 HWY 93 SOUTH,,KALISPELL,59901,,Flathead County,,,"2150 HWY 93 SOUTH, KALISPELL, Montana, 59901"
311,311,313,Montana,ROSAUERS PHARMACY #40,3255 W TECHNOLOGY BLVD,,BOZEMAN,59718,,Gallatin County,45.6696463,-111.081009,"3255 W TECHNOLOGY BLVD, BOZEMAN, Montana, 59718"
312,312,314,Montana,SAFEWAY PHARMACY #1158,201 N MAIN ST,,DEER LODGE,59722,,Powell County,46.402521,-112.734858,"201 N MAIN ST, DEER LODGE, Montana, 59722"
313,313,315,Montana,SAFEWAY PHARMACY #1486,611 N MONTANA AVE,,HELENA,59601,,Lewis and Clark County,46.589901714285700,-112.02029132653100,"611 N MONTANA AVE, HELENA, Montana, 59601"
314,314,316,Montana,SAFEWAY PHARMACY #1581,570 N MONTANA ST,,DILLON,59725,,Beaverhead County,45.2212559040821,-112.63300191833000,"570 N MONTANA ST, DILLON, Montana, 59725"
315,315,317,Montana,SAFEWAY PHARMACY #1646,40774 MT HWY 35,,POLSON,59860,,Lake County,,,"40774 MT HWY 35, POLSON, Montana, 59860"
316,316,318,Montana,SAFEWAY PHARMACY #2106,65810 HWY 93 S,,WHITEFISH,59937,,Flathead County,,,"65810 HWY 93 S, WHITEFISH, Montana, 59937"
317,317,319,Montana,SAFEWAY PHARMACY #2999,1735 W MAIN ST,,BOZEMAN,59715,,Gallatin County,45.6802885,-111.06033954176100,"1735 W MAIN ST, BOZEMAN, Montana, 59715"
318,318,320,Montana,SAFEWAY PHARMACY #3279,2500 BLOCK MASSACHUSETTS AVE,,BUTTE,59701,,Silver Bow County,,,"2500 BLOCK MASSACHUSETTS AVE, BUTTE, Montana, 59701"
319,319,321,Montana,SAMS CLUB PHARMACY 10-6379,401 NW BYPASS,,GREAT FALLS,59404,,Cascade County,47.51605475537150,-111.32013687667500,"401 NW BYPASS, GREAT FALLS, Montana, 59404"
320,320,322,Montana,SAMS PHARMACY 10-4805,4420 KING AVE EAST,,BILLINGS,59101,,Yellowstone County,45.7549481,-108.5261033,"4420 KING AVE EAST, BILLINGS, Montana, 59101"
321,321,323,Montana,SAVMOR DRUG #1 INC,1610 S 3RD ST WEST,,MISSOULA,59801,,Missoula County,46.86706073913040,-114.02062717391300,"1610 S 3RD ST WEST, MISSOULA, Montana, 59801"
322,322,324,Montana,SCL HEALTH PHARMACY SERVICES MEDICAL ARTS PHARMACY,435 S CRYSTAL ST,,BUTTE,59701,,Silver Bow County,46.0079713,-112.545345,"435 S CRYSTAL ST, BUTTE, Montana, 59701"
323,323,325,Montana,SCL HEALTH PHARMACY SERVICES ST VINCENT OUTPATIENT PHARMACY,1233 N 30TH ST /,,BILLINGS,59101,,Yellowstone County,45.79339515,-108.51784201607500,"1233 N 30TH ST /, BILLINGS, Montana, 59101"
324,324,326,Montana,SEIDEN DRUG COMPANY  INC,310 WENDELL AVE STE # 102,,LEWISTOWN,59457,,Fergus County,,,"310 WENDELL AVE STE # 102, LEWISTOWN, Montana, 59457"
325,325,327,Montana,SERVICE DRUG  INC,119 MAIN ST,,SCOBEY,59263,,Daniels County,48.79211816666670,-105.42076400000000,"119 MAIN ST, SCOBEY, Montana, 59263"
326,326,328,Montana,SILVERTIP PHARMACY,120 N CANYON ST,,WEST YELLOWSTONE,59758,,Gallatin County,44.66152882608700,-111.0997919673910,"120 N CANYON ST, WEST YELLOWSTONE, Montana, 59758"
327,327,329,Montana,SMITH PHARMACY #166,1601 MARKET PL DR,,GREAT FALLS,59404,,Cascade County,47.482819,-111.3394667,"1601 MARKET PL DR, GREAT FALLS, Montana, 59404"
328,328,330,Montana,SMITH'S PHARMACY #168,419 NUCLEUS AVE,,COLUMBIA FALLS,59912,,Flathead County,48.37475885714290,-114.18099753061200,"419 NUCLEUS AVE, COLUMBIA FALLS, Montana, 59912"
329,329,331,Montana,SMITH'S PHARMACY #172,195 3RD AVE NE,,KALISPELL,59901,,Flathead County,,,"195 3RD AVE NE, KALISPELL, Montana, 59901"
330,330,332,Montana,SMITHS PHARMACY #170,1400 N 19TH AVE,,BOZEMAN,59715,,Gallatin County,45.697044,-111.06265,"1400 N 19TH AVE, BOZEMAN, Montana, 59715"
331,331,333,Montana,SNYDER DRUG,2515 6TH AVE NORTH,,GREAT FALLS,59401,,Cascade County,47.51179189601240,-111.26381828730000,"2515 6TH AVE NORTH, GREAT FALLS, Montana, 59401"
332,332,334,Montana,ST PETERS HEALTH BROADWAY PHARMACY,2550 E BROADWAY,,HELENA,59601,,Lewis and Clark County,,,"2550 E BROADWAY, HELENA, Montana, 59601"
333,333,335,Montana,ST PETERS HEALTH PHARMACY,2475 BROADWAY,,HELENA,59601,,Lewis and Clark County,46.58297465,-111.99668009768800,"2475 BROADWAY, HELENA, Montana, 59601"
334,334,336,Montana,ST VINCENT HEALTHCARE CANCER CENTER,1315 GOLDEN VALLEY CIRCLE,,BILLINGS,59102,,Yellowstone County,45.7833188,-108.596654,"1315 GOLDEN VALLEY CIRCLE, BILLINGS, Montana, 59102"
335,335,337,Montana,STOKES PHARMACY ANACONDA INC,1525 W PARK AVE,,ANACONDA,59711,,Deer Lodge County,46.132526,-112.9738102,"1525 W PARK AVE, ANACONDA, Montana, 59711"
336,336,338,Montana,STUDENT HEALTH SERVICE PHARMACY,7TH AND GRANT,,BOZEMAN,59717,,Gallatin County,,,"7TH AND GRANT, BOZEMAN, Montana, 59717"
337,337,339,Montana,SUPERIOR SPECIALTY PHARMACY LLC,20 FOUR MILE DR,,KALISPELL,59901,,Flathead County,48.22580445636030,-114.33097175021600,"20 FOUR MILE DR, KALISPELL, Montana, 59901"
338,338,340,Montana,SUPERIOR SPECIALTY PHARMACY LLC,1600 WHITEFISH STAGE ROAD,,KALISPELL,59901,,Flathead County,48.238434,-114.308697,"1600 WHITEFISH STAGE ROAD, KALISPELL, Montana, 59901"
339,339,341,Montana,SYKES PHARMACY INC,202 2ND AVE WEST,,KALISPELL,59901,,Flathead County,48.1961428,-114.3163222,"202 2ND AVE WEST, KALISPELL, Montana, 59901"
340,340,342,Montana,SYKES PHARMACY INC,202 2ND AVE W,,KALISPELL,59901,,Flathead County,48.1961428,-114.3163222,"202 2ND AVE W, KALISPELL, Montana, 59901"
341,341,343,Montana,THE CLINICAL PHARMACY,200 CONWAY DR,,KALISPELL,,,Flathead County,,,
342,342,344,Montana,THOMPSON FALLS FAMILY PHARMACY,1221 W MAIN ST,,THOMPSON FALLS,59859,,Sanders County,,,"1221 W MAIN ST, THOMPSON FALLS, Montana, 59859"
343,343,345,Montana,THREE BEARS PHARMACY #70,45 THREE BEARS DR,,BUTTE,59701,,Silver Bow County,,,"45 THREE BEARS DR, BUTTE, Montana, 59701"
344,344,346,Montana,THRIFTY DRUG STORE INC,201 E PARK,,ANACONDA,59711,,Deer Lodge County,,,"201 E PARK, ANACONDA, Montana, 59711"
345,345,347,Montana,TIMBER RIDGE PHARMACY,1131 NORTH 1ST ST,,HAMILTON,59840,,Ravalli County,46.247495,-114.1556981,"1131 NORTH 1ST ST, HAMILTON, Montana, 59840"
346,346,348,Montana,VALLEY DRUG INC,301 MAIN ST,,STEVENSVILLE,59870,,Ravalli County,46.507008,-114.093815,"301 MAIN ST, STEVENSVILLE, Montana, 59870"
347,347,349,Montana,VILLAGE DRUG,600 S MAIN ST,,CONRAD,59425,,Pondera County,48.166346,-111.948616,"600 S MAIN ST, CONRAD, Montana, 59425"
348,348,350,Montana,WAL-MART PHARMACY 10-1872,2750 PROSPECT AVE,,HELENA,59601,,Lewis and Clark County,46.59359585,-111.99084715166500,"2750 PROSPECT AVE, HELENA, Montana, 59601"
349,349,351,Montana,WAL-MART PHARMACY 10-3259,3555 MULLAN RD,,MISSOULA,59808,,Missoula County,46.8839426,-114.0430477,"3555 MULLAN RD, MISSOULA, Montana, 59808"
350,350,352,Montana,WALGREEN CO,700 E 13TH ST,,WHITEFISH,59937,,Flathead County,48.39988801303030,-114.33397390079400,"700 E 13TH ST, WHITEFISH, Montana, 59937"
351,351,353,Montana,WALGREEN CO,1150 11TH AVE,,HELENA,59601,,Lewis and Clark County,46.589802020408200,-112.02122273469400,"1150 11TH AVE, HELENA, Montana, 59601"
352,352,354,Montana,WALGREEN CO DBA WALGREENS #11891,901 N 1ST ST,,HAMILTON,59840,,Ravalli County,46.247495,-114.1556981,"901 N 1ST ST, HAMILTON, Montana, 59840"
353,353,355,Montana,WALGREEN CO DBA WALGREENS #12155,1330 GRAND AVE,,BILLINGS,59102,,Yellowstone County,45.783958,-108.54948275482600,"1330 GRAND AVE, BILLINGS, Montana, 59102"
354,354,356,Montana,WALGREEN CO DBA WALGREENS #13818,2611 HARRISON AVE,,BUTTE,59701,,Silver Bow County,45.98697549465080,-112.5083494244630,"2611 HARRISON AVE, BUTTE, Montana, 59701"
355,355,357,Montana,WALGREENS #09242,40 WEST IDAHO ST,,KALISPELL,59901,,Flathead County,48.2015903,-114.31583,"40 WEST IDAHO ST, KALISPELL, Montana, 59901"
356,356,358,Montana,WALGREENS #09351,2527 NORTH RESERVE ST,,MISSOULA,59808,,Missoula County,46.88813761616160,-114.03909651010100,"2527 NORTH RESERVE ST, MISSOULA, Montana, 59808"
357,357,359,Montana,WALGREENS #10083,2301 10TH AVE SOUTH,,GREAT FALLS,59405,,Cascade County,47.49426,-111.267636,"2301 10TH AVE SOUTH, GREAT FALLS, Montana, 59405"
358,358,360,Montana,WALGREENS #10652,1602 MAIN ST,,BILLINGS,59105,,Yellowstone County,45.82750933659000,-108.47070242027500,"1602 MAIN ST, BILLINGS, Montana, 59105"
359,359,361,Montana,WALGREENS #10726,2100 BROOKS ST,,MISSOULA,59801,,Missoula County,46.851427,-114.013916,"2100 BROOKS ST, MISSOULA, Montana, 59801"
360,360,362,Montana,WALGREENS #10859,1213 3RD ST NW,,GREAT FALLS,59404,,Cascade County,47.5158181394117,-111.31272593732400,"1213 3RD ST NW, GREAT FALLS, Montana, 59404"
361,361,363,Montana,WALGREENS #11503,3333 GRAND AVE,,BILLINGS,59102,,Yellowstone County,45.784178,-108.598368,"3333 GRAND AVE, BILLINGS, Montana, 59102"
362,362,364,Montana,WALGREENS #16084,40770 MT HWY 35,,POLSON,59860,,Lake County,,,"40770 MT HWY 35, POLSON, Montana, 59860"
363,363,365,Montana,WALMART PHARMACY 10-1901,3901 HARRISON AVE,,BUTTE,59701,,Silver Bow County,45.9638018,-112.51055585816100,"3901 HARRISON AVE, BUTTE, Montana, 59701"
364,364,366,Montana,WALMART PHARMACY 10-1956,2525 KING AVENUE WEST,,BILLINGS,59102,,Yellowstone County,45.75807715,-108.5796077392910,"2525 KING AVENUE WEST, BILLINGS, Montana, 59102"
365,365,367,Montana,WALMART PHARMACY 10-2084,1500 N 7TH AVE,,BOZEMAN,59771,,Gallatin County,,,"1500 N 7TH AVE, BOZEMAN, Montana, 59771"
366,366,368,Montana,WALMART PHARMACY 10-2147,4000 HWY 93 SOUTH,,MISSOULA,59801,,Missoula County,,,"4000 HWY 93 SOUTH, MISSOULA, Montana, 59801"
367,367,369,Montana,WALMART PHARMACY 10-2259,170 HUTTON RANCH RD,,KALISPELL,59901,,Flathead County,48.23175,-114.32617,"170 HUTTON RANCH RD, KALISPELL, Montana, 59901"
368,368,370,Montana,WALMART PHARMACY 10-2455,701 SMELTER AVE NE,,GREAT FALLS,59404,,Cascade County,47.5265467,-111.29657574236200,"701 SMELTER AVE NE, GREAT FALLS, Montana, 59404"
369,369,371,Montana,WALMART PHARMACY 10-2607,36318 MEMORY LANE,,POLSON,59860,,Lake County,,,"36318 MEMORY LANE, POLSON, Montana, 59860"
370,370,372,Montana,WALMART PHARMACY 10-2608,3205 STOWER ST,,MILES CITY,59301,,Custer County,46.40353575,-105.81872963237700,"3205 STOWER ST, MILES CITY, Montana, 59301"
371,371,373,Montana,WALMART PHARMACY 10-2923,1649 MAIN STREET,,BILLINGS,59105,,Yellowstone County,45.8285942,-108.467633,"1649 MAIN STREET, BILLINGS, Montana, 59105"
372,372,374,Montana,WALMART PHARMACY 10-4247,3510 HIGHWAY 2 WEST,,HAVRE,59501,,Hill County,,,"3510 HIGHWAY 2 WEST, HAVRE, Montana, 59501"
373,373,375,Montana,WALMART PHARMACY 10-4412,101 BERNHARDT RD,,LAUREL,59044,,Yellowstone County,45.6674743,-108.7590922,"101 BERNHARDT RD, LAUREL, Montana, 59044"
374,374,376,Montana,WALMART PHARMACY 10-7199,5320 10TH AVE S,,GREAT FALLS,59405,,Cascade County,47.49132005,-111.2189395150030,"5320 10TH AVE S, GREAT FALLS, Montana, 59405"
375,375,377,Montana,WATERS DRUG CO LLC DBA PALMERS DRUG,918 SW HIGGINS AVE,,MISSOULA,59803,,Missoula County,46.835962020134200,-114.01167870469800,"918 SW HIGGINS AVE, MISSOULA, Montana, 59803"
376,376,378,Montana,WESTERN DRUG LONG TERM CARE PHARMACY,1313 W PARK ST,,LIVINGSTON,59047,,Park County,45.65115009090910,-110.57199545454500,"1313 W PARK ST, LIVINGSTON, Montana, 59047"
377,377,379,Montana,WESTERN DRUG OF BOZEMAN,200 HIGHLAND BLVD,,BOZEMAN,59771,,Gallatin County,,,"200 HIGHLAND BLVD, BOZEMAN, Montana, 59771"
378,378,380,Montana,WESTERN DRUG OF GLASGOW INC,PO BOX 309,,GLASGOW,59230,,Valley County,,,"PO BOX 309, GLASGOW, Montana, 59230"
379,379,381,Montana,WESTERN DRUG TOO CLYDE PARK,105 EAST 1ST STREET,,CLYDE PARK,59018,,Park County,,,"105 EAST 1ST STREET, CLYDE PARK, Montana, 59018"
380,380,382,Montana,WHITE DRUG ENTERPRISES INC DBA WHITE DRUG #25,402 EAST MAIN,,SIDNEY,59270,,Richland County,47.714049135284100,-104.15274769609600,"402 EAST MAIN, SIDNEY, Montana, 59270"
381,381,383,Montana,WHITEHALL PHARMACY,411 EAST LEGION ST,,WHITEHALL,59759,,Jefferson County,,,"411 EAST LEGION ST, WHITEHALL, Montana, 59759"
382,382,384,Montana,YELLOWSTONE PHARMACY,1025 MAIN ST,,FORSYTH,59327,,Rosebud County,46.266405500000000,-106.67775920089900,"1025 MAIN ST, FORSYTH, Montana, 59327"
383,383,394,Rhode,AJ PHARMACY,1017 SMITH ST,,PROVIDENCE,2908,,Providence County,41.843520052631600,-71.44749078947370,"1017 SMITH ST, PROVIDENCE, Rhode, 2908"
384,384,395,Rhode,AMERITA INC,2 HEMINGWAY DR,,RIVERSIDE,29152224,,Providence County,,,"2 HEMINGWAY DR, RIVERSIDE, Rhode, 29152224"
385,385,396,Rhode,ANTHONYS PHARMACY LLC,219 MANTON AVE,,PROVIDENCE,2909,,Providence County,41.82116792307690,-71.44796,"219 MANTON AVE, PROVIDENCE, Rhode, 2909"
386,386,397,Rhode,APOTHACA INC DBA PHUSION PHARMACY,17 COVENTRY SHOPPERS PARK,,COVENTRY,2816,,Kent County,,,"17 COVENTRY SHOPPERS PARK, COVENTRY, Rhode, 2816"
387,387,398,Rhode,ASTHENIS,206 CRANSTON STREET,,PROVIDENCE,2907,,Providence County,41.813982619915600,-71.426690457358,"206 CRANSTON STREET, PROVIDENCE, Rhode, 2907"
388,388,399,Rhode,BAYVIEW PHARMACY,3844 POST RD,,WARWICK,2886,,Kent County,41.68528535975750,-71.45319867644150,"3844 POST RD, WARWICK, Rhode, 2886"
389,389,400,Rhode,BLACKSTONE VALLEY COMMUNITY PHARMACY,39 EAST AVE,,PAWTUCKET,28604003,,Providence County,,,"39 EAST AVE, PAWTUCKET, Rhode, 28604003"
390,390,401,Rhode,BROWN UNIVERSITY HEALTH SERVICES PHARMACY,13 BROWN STREET,,PROVIDENCE,2912,,Providence County,41.8276287,-71.40325245714290,"13 BROWN STREET, PROVIDENCE, Rhode, 2912"
391,391,402,Rhode,CARDINAL HEALTH,28-30 HEMINGWAY DRIVE,,EAST PROVIDENCE,2914,,Providence County,41.7975527,-71.3486525,"28-30 HEMINGWAY DRIVE, EAST PROVIDENCE, Rhode, 2914"
392,392,403,Rhode,CARE NEW ENGLAND PHARMACY LLC,455 TOLLGATE RD,ATTEN: AMBULATORY PHARMACY,WARWICK,2886,,Kent County,41.7030906,-71.4721675,"455 TOLLGATE RD, WARWICK, Rhode, 2886"
393,393,404,Rhode,CASMER PHARMACY,113 FRENCHTOWN RD,,NORTH KINGSTOWN,2852,,Washington County,41.63172125427950,-71.47028503700330,"113 FRENCHTOWN RD, NORTH KINGSTOWN, Rhode, 2852"
394,394,405,Rhode,CHAPEL PHARMACY INC,2081 DIAMOND HILL ROAD,,CUMBERLAND,28645920,,Providence County,,,"2081 DIAMOND HILL ROAD, CUMBERLAND, Rhode, 28645920"
395,395,406,Rhode,CVS PHARMACY #397,1270 MAIN STREET,,WEST WARWICK,2893,,Kent County,41.703446604113400,-71.52390796378060,"1270 MAIN STREET, WEST WARWICK, Rhode, 2893"
396,396,407,Rhode,CVS PHARMACY 0037,1998 MENDON RD,,CUMBERLAND,2864,,Providence County,41.94672526840840,-71.43891804640910,"1998 MENDON RD, CUMBERLAND, Rhode, 2864"
397,397,408,Rhode,CVS PHARMACY 0210,180 COUNTY RD,,BARRINGTON,2806,,Bristol County,,,"180 COUNTY RD, BARRINGTON, Rhode, 2806"
398,398,409,Rhode,CVS PHARMACY 0212,681 RESERVOIR AVE,,CRANSTON,2910,,Providence County,41.7805549,-71.44218585,"681 RESERVOIR AVE, CRANSTON, Rhode, 2910"
399,399,410,Rhode,CVS PHARMACY 0247,444 WILLETT AVE,,RIVERSIDE,2915,,Providence County,,,"444 WILLETT AVE, RIVERSIDE, Rhode, 2915"
400,400,411,Rhode,CVS PHARMACY 0265,615 METACOM AVENUE,,WARREN,2885,,Bristol County,41.69914536363640,-71.26475654545460,"615 METACOM AVENUE, WARREN, Rhode, 2885"
401,401,412,Rhode,CVS PHARMACY 0269,583 TAUNTON AVE,,EAST PROVIDENCE,2914,,Providence County,41.82166373934000,-71.35688488147280,"583 TAUNTON AVE, EAST PROVIDENCE, Rhode, 2914"
402,402,413,Rhode,CVS PHARMACY 0311,507 MAIN ST,,EAST GREENWICH,2818,,Kent County,41.65708604664630,-71.45201906611590,"507 MAIN ST, EAST GREENWICH, Rhode, 2818"
403,403,414,Rhode,CVS PHARMACY 0326,120 EDDIE DOWLING HIGHWAY,,NORTH SMITHFIELD,2896,,Providence County,41.98136363091210,-71.51401745247400,"120 EDDIE DOWLING HIGHWAY, NORTH SMITHFIELD, Rhode, 2896"
404,404,415,Rhode,CVS PHARMACY 0330,445 PUTNAM PIKE,APPLE VALLEY MALL,GREENVILLE,2828,,Providence County,41.896157448056800,-71.61544351962240,"445 PUTNAM PIKE, GREENVILLE, Rhode, 2828"
405,405,416,Rhode,CVS PHARMACY 0351,1919 MINERAL SPRING AVE,,NORTH PROVIDENCE,2904,,Providence County,41.860107064609100,-71.46919579911450,"1919 MINERAL SPRING AVE, NORTH PROVIDENCE, Rhode, 2904"
406,406,417,Rhode,CVS PHARMACY 0355,181 BELLEVUE AVE,,NEWPORT,2840,,Newport County,41.48265757142860,-71.30860571428570,"181 BELLEVUE AVE, NEWPORT, Rhode, 2840"
407,407,418,Rhode,CVS PHARMACY 0409,1123 BOSTON NECK DRIVE,,NARRAGANSETT,2882,,Washington County,,,"1123 BOSTON NECK DRIVE, NARRAGANSETT, Rhode, 2882"
408,408,419,Rhode,CVS PHARMACY 0469,1188 PONTIAC AVE,,CRANSTON,2920,,Providence County,41.751226583333300,-71.4516163888889,"1188 PONTIAC AVE, CRANSTON, Rhode, 2920"
409,409,420,Rhode,CVS PHARMACY 0493,99 EAST MAIN RD,,MIDDLETOWN,2842,,Newport County,41.540310369365700,-71.26415728228480,"99 EAST MAIN RD, MIDDLETOWN, Rhode, 2842"
410,410,421,Rhode,CVS PHARMACY 0494,1400 HARTFORD AVE,,JOHNSTON,2919,,Providence County,41.823767,-71.498786,"1400 HARTFORD AVE, JOHNSTON, Rhode, 2919"
411,411,422,Rhode,CVS PHARMACY 0595,6495 POST RD,,NORTH KINGSTOWN,2852,,Washington County,41.621038,-71.458413,"6495 POST RD, NORTH KINGSTOWN, Rhode, 2852"
412,412,423,Rhode,CVS PHARMACY 0642,767 WARWICK AVE,,WARWICK,2888,,Kent County,41.75496813333330,-71.40447473333330,"767 WARWICK AVE, WARWICK, Rhode, 2888"
413,413,424,Rhode,CVS PHARMACY 0645,400 METACOM AVENUE,,BRISTOL,2809,,Bristol County,41.68019253846150,-71.26036276923080,"400 METACOM AVENUE, BRISTOL, Rhode, 2809"
414,414,425,Rhode,CVS PHARMACY 0670,601 SMITHFIELD AVENUE,,PAWTUCKET,2860,,Providence County,41.8793905,-71.4156295,"601 SMITHFIELD AVENUE, PAWTUCKET, Rhode, 2860"
415,415,426,Rhode,CVS PHARMACY 0689,2790 POST ROAD,,WARWICK,2886,,Kent County,41.708369526315800,-71.45087405263160,"2790 POST ROAD, WARWICK, Rhode, 2886"
416,416,427,Rhode,CVS PHARMACY 0728,315 BROAD STREET,,CUMBERLAND,2864,,Providence County,41.9077413125,-71.3933870625,"315 BROAD STREET, CUMBERLAND, Rhode, 2864"
417,417,428,Rhode,CVS PHARMACY 0729,799 HOPE STREET,,PROVIDENCE,2906,,Providence County,41.848741,-71.395028,"799 HOPE STREET, PROVIDENCE, Rhode, 2906"
418,418,429,Rhode,CVS PHARMACY 0733,2400 WARWICK AVENUE,,WARWICK,2889,,Kent County,41.712101,-71.398895,"2400 WARWICK AVENUE, WARWICK, Rhode, 2889"
419,419,430,Rhode,CVS PHARMACY 0852,2250 NEW LONDON TURNPIKE,,EAST GREENWICH,2818,,Kent County,41.6624071,-71.5427654,"2250 NEW LONDON TURNPIKE, EAST GREENWICH, Rhode, 2818"
420,420,431,Rhode,CVS PHARMACY 0856,400 ADMIRAL STREET,,PROVIDENCE,2908,,Providence County,41.846133,-71.429921,"400 ADMIRAL STREET, PROVIDENCE, Rhode, 2908"
421,421,432,Rhode,CVS PHARMACY 0971,150 GRANITE STREET,,WESTERLY,2891,,Washington County,41.36909781265600,-71.8196919064788,"150 GRANITE STREET, WESTERLY, Rhode, 2891"
422,422,433,Rhode,CVS PHARMACY 0994,131 WEBSTER AVENUE,,PROVIDENCE,2909,,Providence County,41.81280555447650,-71.45049683886740,"131 WEBSTER AVENUE, PROVIDENCE, Rhode, 2909"
423,423,434,Rhode,CVS PHARMACY 1042,835 NEWPORT AVENUE,,PAWTUCKET,2861,,Providence County,41.87871025,-71.35414525,"835 NEWPORT AVENUE, PAWTUCKET, Rhode, 2861"
424,424,435,Rhode,CVS PHARMACY 1075,20 HIGH ST,,PASCOAG,2859,,Providence County,41.95559321635870,-71.70507168089170,"20 HIGH ST, PASCOAG, Rhode, 2859"
425,425,436,Rhode,CVS PHARMACY 1294,481 ANGELL STREET,,PROVIDENCE,2906,,Providence County,41.8298966,-71.3888324,"481 ANGELL STREET, PROVIDENCE, Rhode, 2906"
426,426,437,Rhode,CVS PHARMACY 1414,1195 OAKLAWN AVENUE,,CRANSTON,2920,,Providence County,41.73850657508560,-71.47851648956280,"1195 OAKLAWN AVENUE, CRANSTON, Rhode, 2920"
427,427,438,Rhode,CVS PHARMACY 1544,151 FRANKLIN STREET,,WESTERLY,2891,,Washington County,41.35817678992110,-71.80938166621650,"151 FRANKLIN STREET, WESTERLY, Rhode, 2891"
428,428,439,Rhode,CVS PHARMACY 2021,205 ATWOOD AVENUE,,CRANSTON,2920,,Providence County,41.781202741224700,-71.47230510857150,"205 ATWOOD AVENUE, CRANSTON, Rhode, 2920"
429,429,440,Rhode,CVS PHARMACY 2048,1068 PUTNAM PIKE,PO BOX H,GLOCESTER,2814,,Providence County,41.909487931119000,-71.66816369480730,"1068 PUTNAM PIKE, GLOCESTER, Rhode, 2814"
430,430,441,Rhode,CVS PHARMACY 2065,11 MAIN STREET,,WAKEFIELD,2879,,Washington County,41.441365000000000,-71.489079,"11 MAIN STREET, WAKEFIELD, Rhode, 2879"
431,431,442,Rhode,CVS PHARMACY 2234,425 EAST AVENUE,,PAWTUCKET,2860,,Providence County,41.866975,-71.387347,"425 EAST AVENUE, PAWTUCKET, Rhode, 2860"
432,432,443,Rhode,CVS PHARMACY 2323,1734 MAIN STREET,,WEST WARWICK,2893,,Kent County,41.68499630269240,-71.52336229677800,"1734 MAIN STREET, WEST WARWICK, Rhode, 2893"
433,433,444,Rhode,CVS PHARMACY 2347,640 WARREN AVENUE,,EAST PROVIDENCE,2914,,Providence County,41.810442281250000,-71.35557596875,"640 WARREN AVENUE, EAST PROVIDENCE, Rhode, 2914"
434,434,445,Rhode,CVS PHARMACY 2358,10 TURNPIKE AVE,,PORTSMOUTH,2871,,Newport County,41.60096320645700,-71.25020093688270,"10 TURNPIKE AVE, PORTSMOUTH, Rhode, 2871"
435,435,446,Rhode,CVS PHARMACY 2384,834 PROVIDENCE STREET,,WEST WARWICK,2893,,Kent County,41.72389596674390,-71.49146470891450,"834 PROVIDENCE STREET, WEST WARWICK, Rhode, 2893"
436,436,447,Rhode,CVS PHARMACY 2417,935 MANTON AVENUE,,PROVIDENCE,2909,,Providence County,41.818648,-71.4455429,"935 MANTON AVENUE, PROVIDENCE, Rhode, 2909"
437,437,448,Rhode,CVS PHARMACY 2506,2125 DIAMOND HILL ROAD,,CUMBERLAND,2864,,Providence County,41.946811458177500,-71.40346177787040,"2125 DIAMOND HILL ROAD, CUMBERLAND, Rhode, 2864"
438,438,449,Rhode,CVS PHARMACY 4096,309 BROAD STREET,,CENTRAL FALLS,2863,,Providence County,41.8835949692725,-71.38665754862590,"309 BROAD STREET, CENTRAL FALLS, Rhode, 2863"
439,439,450,Rhode,CVS PHARMACY 4796,960 BROAD STREET,,PROVIDENCE,2905,,Providence County,41.79819979166670,-71.41481554166670,"960 BROAD STREET, PROVIDENCE, Rhode, 2905"
440,440,451,Rhode,CVS PHARMACY 8320,1187 MAIN STREET,,WYOMING,2898,,Washington County,41.513810640107100,-71.69734866194320,"1187 MAIN STREET, WYOMING, Rhode, 2898"
441,441,452,Rhode,CVS PHARMACY AT THUNDERMIST #2474,450 CLINTON ST,,WOONSOCKET,2895,,Providence County,42.006899891544400,-71.50628717671330,"450 CLINTON ST, WOONSOCKET, Rhode, 2895"
442,442,453,Rhode,CVS PHARMACY NO 10299,3986 OLD POST RD,,CHARLESTOWN,2813,,Washington County,41.38750836,-71.62445164,"3986 OLD POST RD, CHARLESTOWN, Rhode, 2813"
443,443,454,Rhode,CVS PHARMACY NO 10551,198 BUTTONWOODS AVENUE,,WARWICK,2886,,Kent County,41.70172195764280,-71.43032960659120,"198 BUTTONWOODS AVENUE, WARWICK, Rhode, 2886"
444,444,455,Rhode,CVS PHARMACY NO 1086,500 MAIN ROAD,,TIVERTON,2878,,Newport County,41.659603250000000,-71.19137055,"500 MAIN ROAD, TIVERTON, Rhode, 2878"
445,445,456,Rhode,CVS PHARMACY NO 11234,1000 BROAD ST,,CENTRAL FALLS,2863,,Providence County,41.89354939555720,-71.38791153795700,"1000 BROAD ST, CENTRAL FALLS, Rhode, 2863"
446,446,457,Rhode,CVS PHARMACY NO 15003,173 STATE STREET,,BRISTOL,2809,,Bristol County,41.671468850349400,-71.27167656870150,"173 STATE STREET, BRISTOL, Rhode, 2809"
447,447,458,Rhode,CVS PHARMACY NO 2049,39 PROVIDENCE PLACE,PROVIDENCE PLACE MALL,PROVIDENCE,2903,,Providence County,41.8275369,-71.4177316,"39 PROVIDENCE PLACE, PROVIDENCE, Rhode, 2903"
448,448,459,Rhode,CVS PHARMACY NO 2238,26 PUTNAM PIKE,,JOHNSTON,2919,,Providence County,41.860336866666700,-71.48995273333330,"26 PUTNAM PIKE, JOHNSTON, Rhode, 2919"
449,449,460,Rhode,CVS PHARMACY NO 2293,2 DUDLEY ST,,PROVIDENCE,2905,,Providence County,41.810709,-71.407315,"2 DUDLEY ST, PROVIDENCE, Rhode, 2905"
450,450,461,Rhode,CVS PHARMACY NO 5107,1285 SOUTH COUNTY TRAIL,,EAST GREENWICH,2818,,Kent County,41.6616092,-71.498521,"1285 SOUTH COUNTY TRAIL, EAST GREENWICH, Rhode, 2818"
451,451,462,Rhode,CVS PHARMACY NO 5868,1776 BROAD ST,,CRANSTON,2905,,Providence County,41.77745737456070,-71.40008251022750,"1776 BROAD ST, CRANSTON, Rhode, 2905"
452,452,463,Rhode,CVS PHARMACY NO 590,1054 CASS AVE,,WOONSOCKET,2895,,Providence County,42.00416859183670,-71.48083106122450,"1054 CASS AVE, WOONSOCKET, Rhode, 2895"
453,453,464,Rhode,CVS PHARMACY NO 621,763 TIOGUE AVENUE,,COVENTRY,2816,,Kent County,41.68220771430070,-71.56252730496890,"763 TIOGUE AVENUE, COVENTRY, Rhode, 2816"
454,454,465,Rhode,CVS PHARMACY NO 7387,63 NEWPORT AVE,,RUMFORD,2916,,Providence County,41.8530308,-71.3543629,"63 NEWPORT AVE, RUMFORD, Rhode, 2916"
455,455,466,Rhode,CVS PHARMACY NO 76,1993 PLAINFIELD PIKE,,JOHNSTON,2919,,Providence County,41.78865426530610,-71.51079897959180,"1993 PLAINFIELD PIKE, JOHNSTON, Rhode, 2919"
456,456,467,Rhode,CVS/PHARMACY NO 17161,620 GEORGE WASHINGTON HWY,,LINCOLN,2865,,Providence County,41.934528455197700,-71.46388562725390,"620 GEORGE WASHINGTON HWY, LINCOLN, Rhode, 2865"
457,457,468,Rhode,CVS/PHARMACY CENTRAL PHARMACY SERVICES,25 BLACKSTONE VALLEY PLACE,,LINCOLN,2865,,Providence County,41.93915158184050,-71.4623504227661,"25 BLACKSTONE VALLEY PLACE, LINCOLN, Rhode, 2865"
458,458,469,Rhode,CVS/PHARMACY NO 16546,1245 BALD HILL RD,,WARWICK,2886,,Kent County,41.70009152590100,-71.4961640600577,"1245 BALD HILL RD, WARWICK, Rhode, 2886"
459,459,470,Rhode,CVS/PHARMACY NO 16743,371 PUTNAM PK STE A 250,,SMITHFIELD,2917,,Providence County,,,"371 PUTNAM PK STE A 250, SMITHFIELD, Rhode, 2917"
460,460,471,Rhode,CVS/PHARMACY NO 17487,400 BALD HILL RD,,WARWICK,2886,,Kent County,41.724435875267900,-71.48059270511130,"400 BALD HILL RD, WARWICK, Rhode, 2886"
461,461,472,Rhode,ELECTRIC BOAT FAMILY PHARMACY,100 ROMANO VINEYARD WAY,,NORTH KINGSTOWN,2852,,Washington County,41.608119100000000,-71.44501871844440,"100 ROMANO VINEYARD WAY, NORTH KINGSTOWN, Rhode, 2852"
462,462,473,Rhode,GENOA HEALTHCARE LLC,2 OLD COUNTY RD,,BARRINGTON,2806,,Bristol County,,,"2 OLD COUNTY RD, BARRINGTON, Rhode, 2806"
463,463,474,Rhode,GENOA HEALTHCARE LLC,530 N MAIN ST,,PROVIDENCE,29045762,,Providence County,,,"530 N MAIN ST, PROVIDENCE, Rhode, 29045762"
464,464,475,Rhode,GENOA HEALTHCARE LLC,75 LAMBERT LIND HWY,,WARWICK,2886,,Kent County,41.728601357264400,-71.47648537903310,"75 LAMBERT LIND HWY, WARWICK, Rhode, 2886"
465,465,476,Rhode,GENOA HEALTHCARE LLC,1443 HARTFORD AVE,,JOHNSTON,29193224,,Providence County,,,"1443 HARTFORD AVE, JOHNSTON, Rhode, 29193224"
466,466,477,Rhode,GENOA HEALTHCARE LLC,4705 OLD POST RD,,CHARLESTOWN,28131841,,Washington County,,,"4705 OLD POST RD, CHARLESTOWN, Rhode, 28131841"
467,467,478,Rhode,GENOA HEALTHCARE LLC,103 BACON ST,,PAWTUCKET,28605542,,Providence County,,,"103 BACON ST, PAWTUCKET, Rhode, 28605542"
468,468,479,Rhode,GREEN LINE APOTHECARY,203 MAIN ST,,WAKEFIELD,2879,,Washington County,41.44082964968090,-71.49593456384950,"203 MAIN ST, WAKEFIELD, Rhode, 2879"
469,469,480,Rhode,GREEN LINE APOTHECARY OF PROVIDENCE LLC,905 NORTH MAIN ST,,PROVIDENCE,2904,,Providence County,41.845088,-71.40591,"905 NORTH MAIN ST, PROVIDENCE, Rhode, 2904"
470,470,481,Rhode,HORIZON PHARMACY LLC,2756 POST RD,,WARWICK,2886,,Kent County,41.709643736842100,-71.44999768421050,"2756 POST RD, WARWICK, Rhode, 2886"
471,471,482,Rhode,JB PHARMACY,1017 SMITH ST,,PROVIDENCE,2908,,Providence County,41.843520052631600,-71.44749078947370,"1017 SMITH ST, PROVIDENCE, Rhode, 2908"
472,472,483,Rhode,JB PHARMACY,1165 MAIN AVE.,,WARWICK,2886,,Kent County,41.716590705383900,-71.46268652483390,"1165 MAIN AVE., WARWICK, Rhode, 2886"
473,473,484,Rhode,LANDMARK MEDICAL CENTER OUTPATIENT PHARMACY,115 CASS AVE,,WOONSOCKET,2895,,Providence County,42.00522542857140,-71.49621628571430,"115 CASS AVE, WOONSOCKET, Rhode, 2895"
474,474,485,Rhode,LIFESPAN PHARMACY,593 EDDY ST,DAVOL BLDG,PROVIDENCE,2903,,Providence County,41.811829326530600,-71.4071661632653,"593 EDDY ST, PROVIDENCE, Rhode, 2903"
475,475,486,Rhode,LIFESPAN PHARMACY LLC NO 002,164 SUMMIT AVE,,PROVIDENCE,2906,,Providence County,41.851884,-71.397533,"164 SUMMIT AVE, PROVIDENCE, Rhode, 2906"
476,476,487,Rhode,LIFESPAN PHARMACY NO 003,180 CORLISS ST,,PROVIDENCE,2904,,Providence County,41.84260697895550,-71.41199284742830,"180 CORLISS ST, PROVIDENCE, Rhode, 2904"
477,477,488,Rhode,LIFESPAN SPECIALTY PHARMACY,117 CHAPMAN ST,,PROVIDENCE,2905,,Providence County,41.79320273469390,-71.39803155102040,"117 CHAPMAN ST, PROVIDENCE, Rhode, 2905"
478,478,489,Rhode,MATTS LOCAL PHARMACY,88 EAST MAIN RD,,MIDDLETOWN,2842,,Newport County,41.5175378,-71.29826420000000,"88 EAST MAIN RD, MIDDLETOWN, Rhode, 2842"
479,479,490,Rhode,MCQUADE'S MARKETPLACE PHARMACY,106 MAIN STREET,,WESTERLY,28912116,,Washington County,,,"106 MAIN STREET, WESTERLY, Rhode, 28912116"
480,480,491,Rhode,MCQUADES JAMESTOWN PHARMACY,6 CLARKE ST,,JAMESTOWN,2835,,Newport County,41.4949585036513,-71.37513095706290,"6 CLARKE ST, JAMESTOWN, Rhode, 2835"
481,481,492,Rhode,OMNICARE OF RI,30 CENTRE OF NEW ENGLAND BLVD,,COVENTRY,28166068,,Kent County,,,"30 CENTRE OF NEW ENGLAND BLVD, COVENTRY, Rhode, 28166068"
482,482,493,Rhode,OPTION CARE,49 FREEWAY DR,,CRANSTON,2920,,Providence County,41.75089706587240,-71.44822111186120,"49 FREEWAY DR, CRANSTON, Rhode, 2920"
483,483,494,Rhode,OSCO PHARMACY #4443,15 SMITHFIELD ROAD,,NORTH PROVIDENCE,2904,,Providence County,41.85486349429870,-71.44711154130810,"15 SMITHFIELD ROAD, NORTH PROVIDENCE, Rhode, 2904"
484,484,495,Rhode,PERSONIFILRX NEW ENGLAND LLC,225 METRO CTR BLVD,,WARWICK,2886,,Kent County,41.72473224438170,-71.4587361179921,"225 METRO CTR BLVD, WARWICK, Rhode, 2886"
485,485,496,Rhode,PHARMERICA,83 VERMONT AVE UNIT 2,,WARWICK,28883047,,Kent County,,,"83 VERMONT AVE UNIT 2, WARWICK, Rhode, 28883047"
486,486,497,Rhode,PREMIER COMPOUNDING CENTER LLC,137 CHASE RD,,PORTSMOUTH,2871,,Newport County,41.62294855668710,-71.24364439130300,"137 CHASE RD, PORTSMOUTH, Rhode, 2871"
487,487,498,Rhode,PRESCRIPTION COMPOUNDING SPECIALISTS OF RI INC,1145 RESERVOIR AVE,,CRANSTON,2920,,Providence County,41.77014870838080,-71.4544607802723,"1145 RESERVOIR AVE, CRANSTON, Rhode, 2920"
488,488,499,Rhode,PRESCRIPTION PHARMACY SERVICES,1210 PONTIAC AVE 3RD FLR,,CRANSTON,2920,,Providence County,,,"1210 PONTIAC AVE 3RD FLR, CRANSTON, Rhode, 2920"
489,489,500,Rhode,RETAIL PHARMACY CUSTOMER CARE CENTER,2100 HIGHLAND CORPORATE PARK DR,,CUMBERLAND,2864,,Providence County,,,"2100 HIGHLAND CORPORATE PARK DR, CUMBERLAND, Rhode, 2864"
490,490,501,Rhode,SEASIDE PHARMACY,224 POST RD,,WESTERLY,2891,,Washington County,41.3510905,-71.77162875000000,"224 POST RD, WESTERLY, Rhode, 2891"
491,491,502,Rhode,SIMPSONS PHARMACY,10 NEWPORT AVE,,PAWTUCKET,2861,,Providence County,41.859831666666700,-71.35461328571430,"10 NEWPORT AVE, PAWTUCKET, Rhode, 2861"
492,492,503,Rhode,STOP & SHOP PHARMACY NO 705,446 PUTNAM PIKE,,GREENVILLE,2828,,Providence County,41.87013107923590,-71.53365614715240,"446 PUTNAM PIKE, GREENVILLE, Rhode, 2828"
493,493,504,Rhode,STOP & SHOP PHARMACY 0704,70 MENDON ROAD,,CUMBERLAND,2864,,Providence County,41.925529120792500,-71.41556251519530,"70 MENDON ROAD, CUMBERLAND, Rhode, 2864"
494,494,505,Rhode,STOP & SHOP PHARMACY 0707,200 ATWOOD AVENUE,,CRANSTON,2920,,Providence County,41.781045,-71.472458,"200 ATWOOD AVENUE, CRANSTON, Rhode, 2920"
495,495,506,Rhode,STOP & SHOP PHARMACY 0708,1360 WEST MAIN STREET,,MIDDLETOWN,28420000,,Newport County,,,"1360 WEST MAIN STREET, MIDDLETOWN, Rhode, 28420000"
496,496,507,Rhode,STOP & SHOP PHARMACY 0709,300 QUAKER LANE,,WARWICK,28866682,,Kent County,,,"300 QUAKER LANE, WARWICK, Rhode, 28866682"
497,497,508,Rhode,STOP & SHOP PHARMACY 0712,622 GEORGE WASHINGTON HIGHWAY,,LINCOLN,2865,,Providence County,41.93452603873330,-71.46382507065680,"622 GEORGE WASHINGTON HIGHWAY, LINCOLN, Rhode, 2865"
498,498,509,Rhode,STOP & SHOP PHARMACY 0714,204 GARFIELD AVENUE,,CRANSTON,2920,,Providence County,41.79646323940810,-71.44208351555500,"204 GARFIELD AVENUE, CRANSTON, Rhode, 2920"
499,499,510,Rhode,STOP & SHOP PHARMACY 0718,91 PT JUDITH ROAD,,NARRAGANSETT,28823426,,Washington County,,,"91 PT JUDITH ROAD, NARRAGANSETT, Rhode, 28823426"
500,500,511,Rhode,STOP & SHOP PHARMACY 0721,595 SMITHFIELD ROAD,,NORTH SMITHFIELD,28967211,,Providence County,,,"595 SMITHFIELD ROAD, NORTH SMITHFIELD, Rhode, 28967211"
501,501,512,Rhode,STOP & SHOP PHARMACY 0722,850 MANTON AVENUE,,PROVIDENCE,2909,,Providence County,41.833193766341100,-71.4654517644593,"850 MANTON AVENUE, PROVIDENCE, Rhode, 2909"
502,502,513,Rhode,STOP & SHOP PHARMACY 0724,1128 MINERAL SPRING AVENUE,,NORTH PROVIDENCE,29044105,,Providence County,,,"1128 MINERAL SPRING AVENUE, NORTH PROVIDENCE, Rhode, 29044105"
503,503,514,Rhode,STOP & SHOP PHARMACY NO 726,2470 WARWICK AVENUE,,WARWICK,2889,,Kent County,41.709529655403500,-71.39788088989230,"2470 WARWICK AVENUE, WARWICK, Rhode, 2889"
504,504,515,Rhode,STOP AND SHOP PHARMACY NO 2701,1925 PAWTUCKET AVENUE,,EAST PROVIDENCE,2914,,Providence County,41.82575849166930,-71.35359178516890,"1925 PAWTUCKET AVENUE, EAST PROVIDENCE, Rhode, 2914"
505,505,516,Rhode,STOP AND SHOP PHARMACY NO 710,368-398 COTTAGE STREET,,PAWTUCKET,2861,,Providence County,,,"368-398 COTTAGE STREET, PAWTUCKET, Rhode, 2861"
506,506,517,Rhode,SUBURBAN PHARMACY INC,242 PAWTUXET AVENUE,,WARWICK,28881999,,Kent County,,,"242 PAWTUXET AVENUE, WARWICK, Rhode, 28881999"
507,507,518,Rhode,V-CARE PHARMACY OF RI,265 WATERMAN ST,,PROVIDENCE,2906,,Providence County,41.827969,-71.385365,"265 WATERMAN ST, PROVIDENCE, Rhode, 2906"
508,508,519,Rhode,WAL-MART PHARMACY 10-1873,1776 PLAINFIELD PIKE,,CRANSTON,2921,,Providence County,41.79088471428570,-71.49705466666670,"1776 PLAINFIELD PIKE, CRANSTON, Rhode, 2921"
509,509,520,Rhode,WAL-MART PHARMACY 10-1964,258 POST ROAD,,WESTERLY,2891,,Washington County,41.35168740303150,-71.76581475553750,"258 POST ROAD, WESTERLY, Rhode, 2891"
510,510,521,Rhode,WAL-MART PHARMACY 10-2225,7 DOWLING VILLAGE BOULEVARD,,NORTH SMITHFIELD,2896,,Providence County,41.97741920430740,-71.50730641470880,"7 DOWLING VILLAGE BOULEVARD, NORTH SMITHFIELD, Rhode, 2896"
511,511,522,Rhode,WAL-MART PHARMACY 10-2261,1031 TEN ROD ROAD,,NORTH KINGSTOWN,2852,,Washington County,41.58165749529540,-71.49359776346970,"1031 TEN ROD ROAD, NORTH KINGSTOWN, Rhode, 2852"
512,512,523,Rhode,WAL-MART PHARMACY 10-2283,650 CENTRE OF NEW ENGLAND BLVD,,COVENTRY,2816,,Kent County,41.66209971573550,-71.56899284451760,"650 CENTRE OF NEW ENGLAND BLVD, COVENTRY, Rhode, 2816"
513,513,524,Rhode,WAL-MART PHARMACY 10-2373,840 POST ROAD,,WARWICK,2888,,Kent County,41.75320168028540,-71.41481240098060,"840 POST ROAD, WARWICK, Rhode, 2888"
514,514,525,Rhode,WAL-MART PHARMACY 10-2747,650 BALD HILL ROAD,,WARWICK,2886,,Kent County,41.72335436363640,-71.48078387878790,"650 BALD HILL ROAD, WARWICK, Rhode, 2886"
515,515,526,Rhode,WAL-MART PHARMACY 10-2885,199 CONNELL HIGHWAY,,NEWPORT,2840,,Newport County,41.506229,-71.317489,"199 CONNELL HIGHWAY, NEWPORT, Rhode, 2840"
516,516,527,Rhode,WAL-MART PHARMACY 10-3301,51 SILVER SPRING STREET,,PROVIDENCE,2904,,Providence County,41.846005748410300,-71.41724966878620,"51 SILVER SPRING STREET, PROVIDENCE, Rhode, 2904"
517,517,528,Rhode,WALGREEN NO 19189,20 WOODRUFF AVE,,NARRAGANSETT,2882,,Washington County,41.430919020964100,-71.48210334972640,"20 WOODRUFF AVE, NARRAGANSETT, Rhode, 2882"
518,518,529,Rhode,WALGREEN'S #19844,WALGREENS,,PROVIDENCE,02907 136,,Providence County,,,"WALGREENS, PROVIDENCE, Rhode, 02907 136"
519,519,530,Rhode,WALGREENS NO 02850,1010 PARK AVENUE,,CRANSTON,2910,,Providence County,41.78214666666670,-71.44344433333330,"1010 PARK AVENUE, CRANSTON, Rhode, 2910"
520,520,531,Rhode,WALGREENS NO 19849,655 WARREN AVE,,EAST PROVIDENCE,2914,,Providence County,41.810962,-71.358723,"655 WARREN AVE, EAST PROVIDENCE, Rhode, 2914"
521,521,532,Rhode,WALGREENS #03000,12 EAST MAIN ROAD,,MIDDLETOWN,2842,,Newport County,41.51712728571430,-71.29962914285710,"12 EAST MAIN ROAD, MIDDLETOWN, Rhode, 2842"
522,522,533,Rhode,WALGREENS #06892,591 METACOM AVE,,BRISTOL,2809,,Bristol County,41.6921506,-71.26326186666670,"591 METACOM AVE, BRISTOL, Rhode, 2809"
523,523,534,Rhode,WALGREENS #11147,1 POCASSET AVE,,PROVIDENCE,2909,,Providence County,41.812961,-71.448968,"1 POCASSET AVE, PROVIDENCE, Rhode, 2909"
524,524,535,Rhode,WALGREENS #13987,385 COTTAGE ST,,PAWTUCKET,2861,,Providence County,41.88702345109010,-71.3665436806869,"385 COTTAGE ST, PAWTUCKET, Rhode, 2861"
525,525,536,Rhode,WALGREENS #17519,220 NEWPORT AVE,,RUMFORD,2916,,Providence County,41.85275343478260,-71.35425226086960,"220 NEWPORT AVE, RUMFORD, Rhode, 2916"
526,526,537,Rhode,WALGREENS #18259,452 PUTNAM PK,,GREENVILLE,2828,,Providence County,41.87012175216680,-71.5340957660698,"452 PUTNAM PK, GREENVILLE, Rhode, 2828"
527,527,538,Rhode,WALGREENS #18266,170 GRANITE ST,,WESTERLY,2891,,Washington County,41.367565,-71.819065,"170 GRANITE ST, WESTERLY, Rhode, 2891"
528,528,539,Rhode,WALGREENS #18384,456 BRANCH AVE,,PROVIDENCE,2904,,Providence County,41.85036292329290,-71.4204052477619,"456 BRANCH AVE, PROVIDENCE, Rhode, 2904"
529,529,540,Rhode,WALGREENS #18945,2456 EAST MAIN RD,,PORTSMOUTH,2871,,Newport County,41.598386,-71.251071,"2456 EAST MAIN RD, PORTSMOUTH, Rhode, 2871"
530,530,541,Rhode,WALGREENS #19165,900 VICTORY HIGHWAY,PO BOX 713,SLATERSVILLE,2876,,Providence County,42.00652186712550,-71.58403907217980,"900 VICTORY HIGHWAY, SLATERSVILLE, Rhode, 2876"
531,531,542,Rhode,WALGREENS #19263,2136 MENDON RD,,CUMBERLAND,2864,,Providence County,41.94712432832580,-71.43928651884620,"2136 MENDON RD, CUMBERLAND, Rhode, 2864"
532,532,543,Rhode,WALGREENS #19343,47 VILLAGE PLAZA WAY,,NORTH SCITUATE,2857,,Providence County,41.83585054263430,-71.57283372845790,"47 VILLAGE PLAZA WAY, NORTH SCITUATE, Rhode, 2857"
533,533,544,Rhode,WALGREENS #19394,1193 BOSTON NECK RD,,NARRAGANSETT,2882,,Washington County,41.49044853692170,-71.43798003407520,"1193 BOSTON NECK RD, NARRAGANSETT, Rhode, 2882"
534,534,545,Rhode,WALGREENS #19399,WAGREENS,PO BOX 269,WYOMING,28980269,,Washington County,,,"WAGREENS, WYOMING, Rhode, 28980269"
535,535,546,Rhode,WALGREENS #19470,677 MAIN RD,,TIVERTON,2878,,Newport County,41.65545233333330,-71.19539066666670,"677 MAIN RD, TIVERTON, Rhode, 2878"
536,536,547,Rhode,WALGREENS #19529,WALGREENS,,WARWICK,28898106,,Kent County,,,"WALGREENS, WARWICK, Rhode, 28898106"
537,537,548,Rhode,WALGREENS #19761,1510 SMITH ST,,NORTH PROVIDENCE,2911,,Providence County,41.84999118352290,-71.46098619404260,"1510 SMITH ST, NORTH PROVIDENCE, Rhode, 2911"
538,538,549,Rhode,WALGREENS #19838,WALGREENS,1080 BALD HILL ROAD,WARWICK,28864202,,Kent County,,,"WALGREENS, WARWICK, Rhode, 28864202"
539,539,550,Rhode,WALGREENS #19985,1665 MINERAL SPRING AVE,,NORTH PROVIDENCE,2904,,Providence County,41.8638535,-71.45098425,"1665 MINERAL SPRING AVE, NORTH PROVIDENCE, Rhode, 2904"
540,540,551,Rhode,WALGREENS NO 03204,295 ACADEMY AVE,,PROVIDENCE,29084148,,Providence County,,,"295 ACADEMY AVE, PROVIDENCE, Rhode, 29084148"
541,541,552,Rhode,WALGREENS NO 03345,2399 WARWICK AVE,,WARWICK,2889,,Kent County,41.7115559558204,-71.39897367454630,"2399 WARWICK AVE, WARWICK, Rhode, 2889"
542,542,553,Rhode,WALGREENS NO 03468,100 BROAD ST,,PAWTUCKET,28602024,,Providence County,,,"100 BROAD ST, PAWTUCKET, Rhode, 28602024"
543,543,554,Rhode,WALGREENS NO 03491,1763 BROAD ST,,CRANSTON,29053532,,Providence County,,,"1763 BROAD ST, CRANSTON, Rhode, 29053532"
544,544,555,Rhode,WALGREENS NO 03703,354 ADMIRAL ST,,PROVIDENCE,29082537,,Providence County,,,"354 ADMIRAL ST, PROVIDENCE, Rhode, 29082537"
545,545,556,Rhode,WALGREENS NO 03704,3336 POST RD,,WARWICK,28867132,,Kent County,,,"3336 POST RD, WARWICK, Rhode, 28867132"
546,546,557,Rhode,WALGREENS NO 03719,25 PUTNAM PIKE,,JOHNSTON,29192029,,Providence County,,,"25 PUTNAM PIKE, JOHNSTON, Rhode, 29192029"
547,547,558,Rhode,WALGREENS NO 03737,1074 MINERAL SPRING AVE,,NORTH PROVIDENCE,29044104,,Providence County,,,"1074 MINERAL SPRING AVE, NORTH PROVIDENCE, Rhode, 29044104"
548,548,559,Rhode,WALGREENS NO 03898,45 CUMBERLAND STREET,,WOONSOCKET,2895,,Providence County,42.00786121621620,-71.50282889189190,"45 CUMBERLAND STREET, WOONSOCKET, Rhode, 2895"
549,549,560,Rhode,WALGREENS NO 03899,1387 PLAINFIELD ST,,JOHNSTON,29196821,,Providence County,,,"1387 PLAINFIELD ST, JOHNSTON, Rhode, 29196821"
550,550,561,Rhode,WALGREENS NO 04145,533 ELMWOOD AVE,,PROVIDENCE,29071758,,Providence County,,,"533 ELMWOOD AVE, PROVIDENCE, Rhode, 29071758"
551,551,562,Rhode,WALGREENS NO 06592,1560 WARWICK AVE,,WARWICK,2889,,Kent County,41.73449123255810,-71.40730404651160,"1560 WARWICK AVE, WARWICK, Rhode, 2889"
552,552,563,Rhode,WALGREENS NO 09995,1 COWESETT AVE,,WEST WARWICK,2893,,Kent County,41.684136,-71.52358,"1 COWESETT AVE, WEST WARWICK, Rhode, 2893"
553,553,564,Rhode,WALGREENS NO 10099,333 ATWELLS AVE NO 1,,PROVIDENCE,2903,,Providence County,,,"333 ATWELLS AVE NO 1, PROVIDENCE, Rhode, 2903"
554,554,565,Rhode,WALGREENS NO 10256,1140 NORTH MAIN ST,,PROVIDENCE,2904,,Providence County,41.85197154382590,-71.40173655693670,"1140 NORTH MAIN ST, PROVIDENCE, Rhode, 2904"
555,555,566,Rhode,WALGREENS NO 10476,1583 ATWOOD AVE,,JOHNSTON,2919,,Providence County,41.82759538764340,-71.49993637543460,"1583 ATWOOD AVE, JOHNSTON, Rhode, 2919"
556,556,567,Rhode,WALGREENS NO 11128,875 TIOGUE AVE,,COVENTRY,2816,,Kent County,41.68075287616820,-71.56874392134800,"875 TIOGUE AVE, COVENTRY, Rhode, 2816"
557,557,568,Rhode,WALGREENS NO 15538,335 PRAIRIE AVENUE,,PROVIDENCE,2905,,Providence County,41.805054166666700,-71.41448216666670,"335 PRAIRIE AVENUE, PROVIDENCE, Rhode, 2905"
558,558,569,Rhode,WALGREENS NO 18378,1086 WILLETT AVE,,RIVERSIDE,2915,,Providence County,,,"1086 WILLETT AVE, RIVERSIDE, Rhode, 2915"
559,559,570,Rhode,WALGREENS NO 19111,WALGREENS,63 BROWN ST,NORTH KINGSTOWN,2852,,Washington County,41.6334491,-71.4697284,"WALGREENS, NORTH KINGSTOWN, Rhode, 2852"
560,560,571,Rhode,WALGREENS NO 19601,WALGREENS,5945 POST RD,NORTH KINGSTOWN,2852,,Washington County,41.6334491,-71.4697284,"WALGREENS, NORTH KINGSTOWN, Rhode, 2852"
561,561,572,Rhode,WALGREENS NO 19680,WALGREENS,7691 POST RD,NORTH KINGSTOWN,2852,,Washington County,41.6334491,-71.4697284,"WALGREENS, NORTH KINGSTOWN, Rhode, 2852"
562,562,573,Rhode,WALGREENS NO 19900,WALGREENS,135 PITMAN ST,PROVIDENCE,2906,,Providence County,41.8801588,-71.3870966,"WALGREENS, PROVIDENCE, Rhode, 2906"
563,563,574,Rhode,WE CARE RX,678 PARK AVE,,CRANSTON,2910,,Providence County,41.77730322222220,-71.42802722222220,"678 PARK AVE, CRANSTON, Rhode, 2910"
564,564,575,Rhode,WHITE CROSS PHARMACY,1057 MINERAL SPRING AVENUE,,NORTH PROVIDENCE,2904,,Providence County,41.868643400000000,-71.4249974,"1057 MINERAL SPRING AVENUE, NORTH PROVIDENCE, Rhode, 2904"
565,565,576,Rhode,ZESTED PHARMACY,3844 POST RD,,WARWICK,2886,,Kent County,41.68528535975750,-71.45319867644150,"3844 POST RD, WARWICK, Rhode, 2886"
566,566,579,Oregon,@PHARMACY.COM,,,PORTLAND OR 97206,,,Multnomah County,,,
567,567,580,Oregon,@PHARMACY.COM,,,PORTLAND OR 97266,,,Multnomah County,,,
568,568,581,Oregon,1-800-PETMEDS,,,DELRAY BEACH FL 33445,,,Palm Beach County,,,
569,569,582,Oregon,A & W PHARMACY,,,DUCHESNE UT 84021,,,Duchesne County,,,
570,570,583,Oregon,A1 PHARMACY SERVICES,,,SOUTHAVEN MS 38671,,,DeSoto County,,,
571,571,584,Oregon,ABSOLUTE PHARMACY LLC,,,LUTZ FL 33549,,,Hillsborough County,,,
572,572,585,Oregon,ACARIAHEALTH PHARMACY #11 INC,,,HOUSTON TX 77043,,,Harris County,,,
573,573,586,Oregon,ACARIAHEALTH PHARMACY #13 INC,,,COMMERCE CA 90040,,,Los Angeles County,,,
574,574,587,Oregon,ACARIAHEALTH PHARMACY #14 INC,,,SACRAMENTO CA 95834,,,Sacramento County,,,
575,575,588,Oregon,ACCESS CENTRAL PHARMACY,,,YAKIMA WA 98901,,,Yakima County,,,
576,576,589,Oregon,ACCREDO HEALTH GROUP,,,KENT WA 98032,,,King County,,,
577,577,590,Oregon,ACCREDO HEALTH GROUP,,,WARRENDALE PA 15086,,,Allegheny County,,,
578,578,591,Oregon,ACCREDO HEALTH GROUP,,,ORLANDO FL 32822,,,Orange County,,,
579,579,592,Oregon,ACCREDO HEALTH GROUP,,,NASHVILLE TN 37214,,,Davidson County,,,
580,580,593,Oregon,ACCREDO HEALTH GROUP,,,MEMPHIS TN 38134,,,Shelby County,,,
581,581,594,Oregon,ACCREDO HEALTH GROUP,,,INDIANAPOLIS IN 46241,,,Marion County,,,
582,582,595,Oregon,ACCREDO HEALTH GROUP INC,,,CORONA CA 92880,,,Riverside County,,,
583,583,596,Oregon,ACCREDO HEALTH GROUP INC,,,SALT LAKE CITY UT 84115,,,Salt Lake County,,,
584,584,597,Oregon,ACCREDO HEALTH GROUP INC,,,NEW CASTLE DE 19720,,,New Castle County,,,
585,585,598,Oregon,ACCREDO HEALTH GROUP INC,,,ENGLEWOOD CO 80112-5861,,,Arapahoe County,,,
586,586,599,Oregon,ACCREDO HEALTH GROUP INC,,,TEMPE AZ 85281,,,Maricopa County,,,
587,587,600,Oregon,ACS PHARMACY,,,ORLANDO FL 32809,,,Orange County,,,
588,588,601,Oregon,ACUPHARM LLC,,,TAYLORSVILLE UT 84123,,,Salt Lake County,,,
589,589,602,Oregon,ADHERERX INC,,,CARY NC 27511,,,Wake County,,,
590,590,603,Oregon,ADVANCED DIABETES SUPPLY,,,CARLSBAD CA 92009,,,San Diego County,,,
591,591,604,Oregon,ADVANCED INFUSION CARE,,,VALDOSTA GA 31602,,,Lowndes County,,,
